id,retailer,fascia,store_name,add_one,add_two,town,suburb,postcode,long_wgs,lat_wgs,bng_e,bng_n,pqi,open_date,size_band,county
1010015249,Marks and Spencer,Marks and Spencer Hospital,M&S St Helier Hospital,St Helier Hospital,Wrythe Lane,London,St Helier,SM5 1AA,-0.1833835412176217,51.38015317119956,526522.4052986657,166132.6473465945,Rooftop,20189999.0,"< 3,013 ft2 (280m2)",Greater London
1010006079,Tesco,Tesco Express Esso,Tesco North Cheam Esso Express,668 London Road,North Cheam,London,North Cheam,SM3 9BY,-0.2224029594530343,51.37579674050605,523818.8214916846,165581.648139472,Rooftop,,"< 3,013 ft2 (280m2)",Greater London
1010001783,Marks and Spencer,Marks and Spencer BP,M&S Cambridge Rd Carshalton BP,322-332 Carshalton Road,Carshalton,London,Carshalton,SM5 3QB,-0.172373824118035,51.36291324453289,527336.34150079,164234.57814117806,Rooftop,,"< 3,013 ft2 (280m2)",Greater London
1010019365,Aldi,Aldi,Aldi Cheam,673-683 London Road,,London,North Cheam,SM3 9DL,-0.223004256934944,51.37585499179599,523776.81665216375,165587.11150489812,Rooftop,20211209.0,"3,013 < 15,069 ft2 (280 < 1,400 m2)",Greater London
1010020479,Waitrose,Little Waitrose Shell,Little Waitrose Shell Sutton,56-58 Cheam Road,,London,Sutton,SM1 2SS,-0.200214987612644,51.3613029952861,525402.5683679823,164007.5828503209,Rooftop,,"< 3,013 ft2 (280m2)",Greater London
1010015823,Budgens,Budgens,Budgens Carshalton,Green Wrythe Lane,,London,St Helier,SM5 1JQ,-0.1742089521208285,51.38430961464467,527149.3453008261,166610.71038712753,Rooftop,20199999.0,"< 3,013 ft2 (280m2)",Greater London
1010003827,Sainsburys,Sainsburys Local,Sainsburys Carshalton High Street Local,52-56 High Street,,London,Carshalton,SM5 3AG,-0.1610491797666191,51.36515649263103,528118.4515027965,164503.73814363836,Rooftop,,"< 3,013 ft2 (280m2)",Greater London
1010019303,Lidl,Lidl,Lidl London - Sutton Town Centre,268-270 High St,,London,Sutton,SM1 1PG,-0.1942290339458933,51.36805481065043,525800.8093311312,164768.64115600107,Rooftop,20210812.0,"3,013 < 15,069 ft2 (280 < 1,400 m2)",Greater London
1010005654,Tesco,Tesco Express,Tesco Sutton Brighton Rd Express,14-17 Regent Parade,Brighton Road,London,Sutton,SM2 5BQ,-0.1913641035327551,51.358259940097966,526027.0914974251,163684.34813669656,Rooftop,,"< 3,013 ft2 (280m2)",Greater London
1010015793,The Co-operative Group,The Co-operative Food,Co-op London - Chiswick High Road,578-586 Chiswick High Road,,London,Gunnersbury,W4 5RP,-0.274921081688643,51.49270940554369,519857.6524878559,178495.52554671705,Rooftop,20199999.0,"< 3,013 ft2 (280m2)",Greater London
1010002601,Morrisons,Morrisons,Morrisons Acton London,King Street,Acton,London,Acton,W3 9LA,-0.2726378652154529,51.508390093189234,519975.0014811576,180243.0381864222,Rooftop,,"15,069 < 30,138 ft2 (1,400 < 2,800 m2)",Greater London
1010003966,Sainsburys,Sainsburys Local,Sainsburys Ealing Common Uxbridge Road Local,437b Uxbridge Road,,London,Acton,W5 3NW,-0.2876056998466514,51.50995320823085,518932.2414784052,180392.4581850332,Rooftop,,"< 3,013 ft2 (280m2)",Greater London
1010014903,Sainsburys,Sainsburys Local,Sainsburys North Acton Station Local,3 Victoria Road,,London,North Acton,W3 6UP,-0.260755077574311,51.52331797434037,520760.1546831392,181922.62699413003,Rooftop,20179999.0,"< 3,013 ft2 (280m2)",Greater London
1010020314,The Co-operative Group,The Co-operative Food,Co-op Park Royal - Hanger Green,12-15 Hanger Green,,London,Ealing,W5 3AY,-0.2848556737956221,51.52645517326016,519080.06464842655,182232.0399121011,Rooftop,20229999.0,"< 3,013 ft2 (280m2)",Greater London
1010000761,Asda,Asda Superstore,Asda Park Royal Superstore,2-20 Western Road,Park Royal,London,North Acton,NW10 7LW,-0.2702746892432609,51.5286349171985,520085.7814813368,182498.24819502048,Rooftop,,"30,138 ft2 > (2,800 m2)",Greater London
1010003937,Sainsburys,Sainsburys Local,Sainsburys Brentford Kew Bridge Road Local,Unit 9,8 Kew Bridge Road,London,Brentford,TW8 0ES,-0.2881339216559668,51.48847852529269,518951.43358989,178003.49867277563,Rooftop,,"< 3,013 ft2 (280m2)",Greater London
1010023371,The Co-operative Group,The Co-operative Food,Co-op Alperton - Grand Union,6 Caldon Boulevard,,London,Alperton,HA0 1EX,-0.2834738282974092,51.5401566746325,519140.1737932584,183757.97667760385,Rooftop,20240628.0,"< 3,013 ft2 (280m2)",Greater London
1010024619,Tesco,Tesco Express,Tesco Ealing Northfield Express,101-103 Northfield Avenue,,London,Northfields,W13 9QR,-0.317239869,51.50359097,516892.1086615482,179637.24408297014,Third Party,20249999.0,"< 3,013 ft2 (280m2)",Greater London
1010003965,Sainsburys,Sainsburys Local,Sainsburys Ealing Broadway Local,30-33 The Broadway,,London,Ealing,W5 2NP,-0.3022114551252934,51.51405309614583,517908.13147568126,180824.7781847296,Rooftop,,"< 3,013 ft2 (280m2)",Greater London
1010023646,Lidl,Lidl,Lidl The Broadway,The Broadway 90 - 94,,London,West Ealing,W13 0SY,-0.3247152002929277,51.51021237965142,516356.4476870164,180361.68468268623,Rooftop,20250220.0,"3,013 < 15,069 ft2 (280 < 1,400 m2)",Greater London
1010022446,Tesco,Tesco Express,Tesco Hanwell Square Exp,Hanwell Square 75-117 Boston Road,,London,Hanwell,W7 3SA,-0.3367711289299072,51.50598034673088,515530.5490416075,179871.97650317464,Rooftop,20249999.0,"< 3,013 ft2 (280m2)",Greater London
1010014919,Marks and Spencer,Marks and Spencer Foodhall,M&S Greenford Foodhall,Unit 10 Westway Cross Shopping Park,,London,Greenford,UB6 0UW,-0.33898455467348,51.542025210553966,515285.9555685629,183876.91329123263,Rooftop,20170830.0,"3,013 < 15,069 ft2 (280 < 1,400 m2)",Greater London
1010005834,Tesco,Tesco Express,Tesco Southall King St Express,44-48 King Street,Southall,London,Southall,UB2 4DB,-0.3832748603991815,51.50051250599172,512316.65146091394,179191.6081681935,Rooftop,,"< 3,013 ft2 (280m2)",Greater London
1010022706,Morrisons,Morrisons,Morrisons Brentford Waterside,127 High Street,,London,Brentford,TW8 8EW,-0.3119605867563654,51.4821581294105,517313.4614631895,177262.22716918943,Rooftop,20230928.0,"30,138 ft2 > (2,800 m2)",Greater London
1010024030,Lidl,Lidl,Lidl Brentford,228-246 High Street,,London,Brentford,TW8 0JG,-0.305655487631549,51.48383933872514,517746.9304028007,177459.29864624242,Rooftop,20250605.0,"15,069 < 30,138 ft2 (1,400 < 2,800 m2)",Greater London
1010008078,The Co-operative Group,The Co-operative Food,Co-op Harold Hill,8 Farnham Road,Harold Hill,London,Harold Hill,RM3 8DX,0.2183232202892728,51.60680459831676,553712.1596664368,192105.0313919296,Rooftop,,"3,013 < 15,069 ft2 (280 < 1,400 m2)",Greater London
1010015073,Lidl,Lidl,Lidl Harold Hill London,131-133 Gooshays Drive,Romford,London,Harold Hill,RM3 8AE,0.2242851129078646,51.605831725795774,554128.2572674607,192009.3965923153,Rooftop,20180517.0,"3,013 < 15,069 ft2 (280 < 1,400 m2)",Greater London
1010020613,Aldi,Aldi,"Aldi Rom Valley Retail Park, Romford",Rom Valley Retail Park,,London,Heath Park,RM7 0AN,0.1852890565815906,51.56892687806292,551550.7715491207,187824.1156319051,Rooftop,20221199.0,"3,013 < 15,069 ft2 (280 < 1,400 m2)",Greater London
1010020576,Budgens,Budgens,Budgens Romford,Tayberry Court,35 Briar Road,London,Harold Hill,RM3 8SN,0.2138759472195892,51.59984837200388,553427.6611981249,191322.1630172875,Rooftop,20221299.0,"< 3,013 ft2 (280m2)",Greater London
1010001769,Marks and Spencer,Marks and Spencer BP,M&S Hornchurch BP,Southend Arterial Road,,London,Emerson Park,RM11 3UJ,0.240395095270401,51.5798302025586,555332.3715704938,189152.1282839292,Rooftop,,"< 3,013 ft2 (280m2)",Greater London
1010011531,Chelmsford Star Co-operative Society,The Co-operative Food,Co-op Mungo Park,150 Mungo Park Road,,London,Elm Park,RM13 7PP,0.1922362860527731,51.54028495956803,552127.6815627582,184653.5682617053,Rooftop,,"< 3,013 ft2 (280m2)",Greater London
1010010618,Tesco,Tesco Express,Tesco Romford Marlborough Express,Mawney Road,,London,Romford,RM7 8AB,0.1642353943699202,51.582420389254594,550047.3615575044,189281.1982750055,Rooftop,20159999.0,"< 3,013 ft2 (280m2)",Greater London
1010007336,Lidl,Lidl,Lidl Romford London,Atlanta Boulevard,South Street,London,Romford,RM1 1TB,0.1831453929315155,51.57378984653106,551386.0715608369,188360.4382740049,Rooftop,,"3,013 < 15,069 ft2 (280 < 1,400 m2)",Greater London
1010005534,Tesco,Tesco Express,Tesco Butts Rd Express,77-79 Butts Green Road,Hornchurch,London,Emerson Park,RM11 2LD,0.2187658984519563,51.57166569079296,553861.4215669219,188198.5382778188,Rooftop,,"< 3,013 ft2 (280m2)",Greater London
1010014997,The Co-operative Group,The Co-operative Food,Co-op Upminster Road - Upminster,166 Upminster Road,,London,Upminster,RM14 2RB,0.2382971512194301,51.55843650217149,555259.8526703769,186768.7243750509,Rooftop,20189999.0,"< 3,013 ft2 (280m2)",Greater London
1010000785,Asda,Asda Superstore,Asda Romford Superstore,Dolphin Approach,Mercury Gardens,London,Romford,RM1 3EE,0.1855602893043789,51.579472510463546,551534.5115611831,188997.34827661733,Rooftop,,"30,138 ft2 > (2,800 m2)",Greater London
1010005531,Tesco,Tesco Express,Tesco Dagenham Oxlow Ln Express,201 Oxlow Lane,Dagenham,London,Becontree Heath,RM10 7YA,0.152724033849251,51.551635229639565,549350.6615558863,185834.3382610667,Rooftop,,"< 3,013 ft2 (280m2)",Greater London
1010003189,Sainsburys,Sainsburys,Sainsburys Romford,1 The Brewery,,London,Romford,RM1 1AU,0.1799654990764222,51.5749151612052,551162.0015602813,188478.9982740442,Rooftop,,"30,138 ft2 > (2,800 m2)",Greater London
1010001545,Marks and Spencer,Marks and Spencer,M&S Romford,39 South Street,,London,Romford,RM1 1NT,0.1819231554889355,51.57747787833399,551289.1415605857,188768.01827533383,Rooftop,,"30,138 ft2 > (2,800 m2)",Greater London
1010005539,Tesco,Tesco Express,Tesco Cranham Express,78-81 Front Lane,Cranham,London,Cranham,RM14 1XL,0.2666934906407949,51.561909256838,557216.1415751305,187215.5182801445,Rooftop,,"< 3,013 ft2 (280m2)",Greater London
1010015993,Budgens,Budgens,Budgens MRH Romford,Farringdon Avenue Harold Hill,,London,Harold Hill,RM3 0AB,0.2170265658903392,51.59739969665996,553654.1053920825,191056.4855531901,Rooftop,20199999.0,"< 3,013 ft2 (280m2)",Greater London
1010015875,Budgens,Budgens,Budgens Romford,57-63 London Road,,London,Romford,RM7 9QA,0.1756575903085757,51.575156858316895,550862.7086219717,188496.98333147424,Rooftop,20199999.0,"< 3,013 ft2 (280m2)",Greater London
1010010918,Iceland,Iceland,Iceland Upminster,47-49 Corbets Tey Road,,London,Upminster,RM14 2AL,0.2485348644902478,51.5543617374172,555983.4015721506,186337.3882747484,Rooftop,,"3,013 < 15,069 ft2 (280 < 1,400 m2)",Greater London
1010000408,Aldi,Aldi,Aldi Dagenham London,Unit 1A Ripple Road,,London,Dagenham,RM9 6SJ,0.1448250872731007,51.53094750573101,548870.5215547582,183517.77825169067,Rooftop,,"3,013 < 15,069 ft2 (280 < 1,400 m2)",Greater London
1010000407,Aldi,Aldi,Aldi Marlborough Road Romford London,7-9 Marlborough Road,,London,Romford,RM7 8AD,0.1632865629723973,51.581656592277625,549984.1415573515,189194.31827456737,Rooftop,,"3,013 < 15,069 ft2 (280 < 1,400 m2)",Greater London
1010008077,The Co-operative Group,The Co-operative Food,Co-op Harold Wood,15 Station Road,Harold Wood,London,Harold Wood,RM3 0BP,0.2334000830527554,51.59358112666278,554801.0262691515,190666.38878855604,Rooftop,,"< 3,013 ft2 (280m2)",Greater London
1010021160,The Southern Co-operative,The Co-operative Food,Co-op FR Upminster,28 Station Road,,London,Upminster,RM14 2UB,0.2498100126933364,51.55723999543816,556061.9480270427,186660.1642996323,Rooftop,20230499.0,"< 3,013 ft2 (280m2)",Greater London
1010003761,Sainsburys,Sainsburys Local,Sainsburys Romford North Street Local,137 North Street,Romford,London,Romford,RM1 1ED,0.1760819812989487,51.58208518987031,550869.1815595347,189268.2882764249,Rooftop,,"< 3,013 ft2 (280m2)",Greater London
1010008107,The Co-operative Group,The Co-operative Food,Co-op Rose Lane,101/107 Rose Lane,Marks Gate East,London,Chadwell Heath,RM6 5NR,0.135690852225687,51.58422537429685,548063.9766525858,189423.75467198185,Rooftop,,"< 3,013 ft2 (280m2)",Greater London
1010004883,Tesco,Tesco Express,Tesco Chingford Express,28-30 Station Road,,London,Chingford,E4 7BE,0.0048828388137693,51.63198728936536,538856.35152924,194478.3982741207,Rooftop,,"< 3,013 ft2 (280m2)",Greater London
1010023817,Aldi,Aldi,"Aldi 4 Wimbledon Bridge, London",4 Wimbledon Bridge,,London,Wimbledon,SW19 7NW,-0.2065865806828282,51.42068421993792,524797.4516198507,170600.0579794555,Rooftop,20250515.0,"3,013 < 15,069 ft2 (280 < 1,400 m2)",Greater London
1010021915,Marks and Spencer,Marks and Spencer Simply Food,M&S Earlsfield SF,170 Penwith Road,,London,Earlsfield,SW18 4QA,-0.1892958493216684,51.44253662396783,525939.5793307591,173059.674068556,Rooftop,20231116.0,"3,013 < 15,069 ft2 (280 < 1,400 m2)",Greater London
1010005734,Tesco,Tesco Express,Tesco Tooting Express,50-56 London Road,Tooting,London,Tooting,SW17 9HP,-0.1622850675837939,51.418870639058085,527882.6815020848,170474.69816508883,Rooftop,,"< 3,013 ft2 (280m2)",Greater London
1010022014,Cook,Cook,Cook Southfields,29 Replingham Road Southfields,,London,Southfields,SW18 5LT,-0.2050128,51.445018,524840.5780750997,173308.73159703234,Rooftop,,"< 3,013 ft2 (280m2)",Greater London
1010011012,Iceland,Iceland,Iceland Mitcham Road Tooting,132 Mitcham Road,,London,Tooting,SW17 9NH,-0.1637578109212663,51.42435763081582,527764.9915017674,171082.29816710175,Rooftop,,"3,013 < 15,069 ft2 (280 < 1,400 m2)",Greater London
1010003866,Sainsburys,Sainsburys Local,Sainsburys Earlsfield Local,282 Magdalen Road,Earlsfield,London,Earlsfield,SW18 3NY,-0.1871582402535115,51.442154891393855,526089.181497388,173020.89817110164,Rooftop,,"< 3,013 ft2 (280m2)",Greater London
1010013979,Lidl,Lidl,Lidl Summerstown London,Plough Lane,,London,Summerstown,SW17 0BW,-0.1848040282586925,51.43029944391224,526285.4514979321,171706.58816662844,Rooftop,20160811.0,"3,013 < 15,069 ft2 (280 < 1,400 m2)",Greater London
1010003869,Sainsburys,Sainsburys Local,Sainsburys London Wimbledon Broadway Local,120 The Broadway,,London,Wimbledon,SW19 1RH,-0.2001897923853735,51.41945534968861,525245.5614952734,170474.3081601417,Rooftop,,"< 3,013 ft2 (280m2)",Greater London
1010019353,Tesco,Tesco Express,Tesco Beaumont Road Express,129-139 Beaumont Road,,London,Southfields,SW19 6RY,-0.2156535055106118,51.4483296281781,524092.1771960208,173658.93174303003,Rooftop,20219999.0,"< 3,013 ft2 (280m2)",Greater London
1010006096,Tesco,Tesco Express Esso,Tesco Colliers Wood Esso Express,164-168 High Street,Colliers Wood,London,Collier's Wood,SW19 2BN,-0.1782672212071598,51.4188052309077,526771.6214992205,170439.67816287745,Rooftop,,"< 3,013 ft2 (280m2)",Greater London
1010003871,Sainsburys,Sainsburys Local,Sainsburys Wandsworth Merton Road Local,400 Durnsford Road,,London,Wimbledon Park,SW19 8DZ,-0.1977570072269602,51.43905492662567,525361.1014955125,172657.9981684017,Rooftop,,"< 3,013 ft2 (280m2)",Greater London
1010015773,The Co-operative Group,The Co-operative Food,Co-op Colliers Wood Station,Units 5 and 11 Christchurch Road,,London,Collier's Wood,SW19 2FA,-0.1783387618031235,51.4175224788134,526770.1932155081,170296.9091429116,Rooftop,20199999.0,"< 3,013 ft2 (280m2)",Greater London
1010006534,Waitrose,Little Waitrose,Little Waitrose Wimbledon Hill,2 Wimbledon Hill Road,Wimbledon,London,Wimbledon,SW19 7NS,-0.2073608816401652,51.42089183513521,524743.0514939673,170621.82815973816,Rooftop,20110620.0,"< 3,013 ft2 (280m2)",Greater London
1010003864,Sainsburys,Sainsburys Local,Sainsburys Tooting Mitcham Road Local,196 Mitcham Road,,London,Tooting,SW17 9NN,-0.1610965604071185,51.42315532105668,527953.3615022557,170953.2381669815,Rooftop,,"< 3,013 ft2 (280m2)",Greater London
1010023982,Morrisons,Morrisons Daily,Morrisons Dailly Durnsford Road,23 Durnsford Road,,London,Summerstown,SW19 8GY,-0.1900204875332273,51.42906233633927,525926.238687207,171560.04758848116,Rooftop,20250509.0,"< 3,013 ft2 (280m2)",Greater London
1010005748,Tesco,Tesco Express,Tesco Wimbledon Chase Express,367-373 Kingston Road,Wimbledon Chase,London,Wimbledon Chase,SW20 8JX,-0.213544122924196,51.40957689761058,524343.819092964,169353.0742543235,Rooftop,,"< 3,013 ft2 (280m2)",Greater London
1010003231,Sainsburys,Sainsburys,Sainsburys Morden,London Road,,London,Morden,SM4 5HT,-0.1929105211147344,51.40313248874534,525796.4414967418,168671.6181545469,Rooftop,,"15,069 < 30,138 ft2 (1,400 < 2,800 m2)",Greater London
1010023596,Morrisons,Morrisons Daily,Morrisons Daily Northwood,117 Pinner Rd,,London,Northwood Hills,HA6 1DA,-0.4102823494862395,51.60270630085797,510195.1453799627,190515.31388393303,Rooftop,20241199.0,"< 3,013 ft2 (280m2)",Greater London
1010021998,Cook,Cook,Cook Northwood,10 Clive Parade Green Lane Northwood,,London,Northwood,HA6 2QF,-0.4253297,51.6116995,509131.5317913654,191492.88493432227,Rooftop,,"< 3,013 ft2 (280m2)",Greater London
1010006333,Tesco,Tesco Extra,Tesco Twickenham Extra,Mogden Lane,Isleworth,London,Isleworth,TW7 7JY,-0.3374660649630294,51.45897845859229,515601.0014698696,174643.99815743044,Rooftop,,"30,138 ft2 > (2,800 m2)",Greater London
1010006332,Tesco,Tesco Extra,Tesco Osterley Extra,Osterley Park,Syon Lane,London,Brentford End,TW7 5NZ,-0.3301427245215101,51.48569859151384,516042.0014709024,177626.99816934258,Rooftop,,"30,138 ft2 > (2,800 m2)",Greater London
1010013907,Tesco,Tesco Express,Tesco Spring Grove Express,Spring Grove Road,,London,Spring Grove,TW7 4HL,-0.3439942679265319,51.47496221912465,515107.291468482,176411.20816306764,Rooftop,20160628.0,"< 3,013 ft2 (280m2)",Greater London
1010010931,Iceland,Iceland,Iceland Hounslow West,288 Bath Road,,London,Hounslow West,TW4 7DN,-0.3862582554680114,51.472674640792015,512177.81146070303,176091.2881563885,Rooftop,,"3,013 < 15,069 ft2 (280 < 1,400 m2)",Greater London
1010000833,Asda,Asda Superstore,Asda Feltham Superstore,Tiiley Road,Feltham,London,Feltham,TW13 4BH,-0.4121624641859412,51.44680565635914,510441.1214562013,173175.16814227396,Rooftop,,"30,138 ft2 > (2,800 m2)",Greater London
1010015940,Iceland,Iceland,Iceland Hounslow 2,147-161 High Street,,London,Hounslow,TW3 1QL,-0.3591919504814551,51.46929998145215,514065.9754835792,175757.7760036912,Rooftop,20190299.0,"3,013 < 15,069 ft2 (280 < 1,400 m2)",Greater London
1010004426,Tesco,Tesco,Tesco Feltham Superstore,Dukes Green Avenue,Feltham,London,North Feltham,TW14 0LH,-0.4149836363789044,51.45930563216987,510215.0014555306,174560.99814700038,Rooftop,,"30,138 ft2 > (2,800 m2)",Greater London
1010006857,Waitrose,Waitrose MSA,Waitrose at London Gateway,M1 Junction 2/4,,London,Edgware,NW7 3HB,-0.2642419761135309,51.63138291813084,520232.9914810232,193934.408238078,Rooftop,,"< 3,013 ft2 (280m2)",Greater London
1010000363,Aldi,Aldi,Aldi Kingsbury London,632-640 Kingsbury Road,Kingsbury,London,Kingsbury,NW9 9HN,-0.279937290682462,51.58525901417814,519267.461478818,188779.4082169636,Rooftop,,"3,013 < 15,069 ft2 (280 < 1,400 m2)",Greater London
1010023631,Sainsburys,Sainsburys,Sainsburys Hendon,2 Henshaw Parade,,London,Colindale,NW9 6GH,-0.2448461008963182,51.58245793094049,521705.9848947087,188525.6855009528,Rooftop,20241120.0,"30,138 ft2 > (2,800 m2)",Greater London
1010001746,Marks and Spencer,Marks and Spencer BP,M&S Blackbird BP,Brent Cross,,London,Wembley Park,NW9 8SD,-0.264474625660952,51.56501662641781,520392.1114819204,186553.6382107128,Rooftop,,"< 3,013 ft2 (280m2)",Greater London
1010014018,Tesco,Tesco Express,Tesco Mill Hill Broadway Express,59-61 Mill Hill Broadway,,London,Mill Hill,NW7 3DA,-0.2467730141273108,51.61499902399177,521485.6914844512,192141.2682336499,Rooftop,20169999.0,"< 3,013 ft2 (280m2)",Greater London
1010005990,Tesco,Tesco Express Esso,Tesco Stanmore Esso Express,Honeypot Lane,Stanmore,London,Queensbury,HA7 1JN,-0.2941809997856702,51.59629758930654,518252.0414760536,189983.8582195912,Rooftop,,"< 3,013 ft2 (280m2)",Greater London
1010002995,Sainsburys,Sainsburys,Sainsburys Edgware,Broadwalk Shopping Centre,Station Road,London,Edgware,HA8 7BQ,-0.2757699960802142,51.61182451090615,519486.4814792026,191740.478228462,Rooftop,,"15,069 < 30,138 ft2 (1,400 < 2,800 m2)",Greater London
1010023506,Tesco,Tesco Express,Tesco Watling Ave Express,74 -76 Watling Avenue,,London,Burnt Oak,HA8 0LU,-0.2646809097615692,51.60197693035449,520280.26278347103,190663.529337998,Rooftop,20241129.0,"< 3,013 ft2 (280m2)",Greater London
1010009180,The Co-operative Group,The Co-operative Food,Co-op Mays Lane,187 Mays Lane,,London,Chipping Barnet,EN5 2DY,-0.2033106977185799,51.645736446029765,524410.6376918973,195632.55155211897,Rooftop,,"< 3,013 ft2 (280m2)",Greater London
1010006725,Waitrose,Waitrose,Waitrose Mill Hill,2 Langstone Way,Mill Hill,London,Mill Hill East,NW7 1GU,-0.2090713910673306,51.60724262969331,524117.0014914122,191341.9982354993,Rooftop,,"15,069 < 30,138 ft2 (1,400 < 2,800 m2)",Greater London
1010005405,Tesco,Tesco Express,Tesco Hendon Beaufort Park Express,8 Armitage Avenue,Hendon,London,Colindale,NW9 5AA,-0.2429196680930142,51.59632059276099,521802.4014854188,190070.5082264751,Rooftop,,"< 3,013 ft2 (280m2)",Greater London
1010024578,Tesco,Tesco Express,Tesco Regents Park Road Express,206 Regents Park Road,,London,Finchley,N3 3HP,-0.1981171303072658,51.59613928321134,524905.9564364123,190125.88205640408,Third Party,20250821.0,"< 3,013 ft2 (280m2)",Greater London
1010014880,Waitrose,Little Waitrose,Little Waitrose Finchley Central,Gateway House,,London,Finchley,N3 2LN,-0.1950220577003494,51.59989100751429,525110.0217940578,190548.38453435805,Rooftop,20170915.0,"< 3,013 ft2 (280m2)",Greater London
1010021457,Tesco,Tesco Express,Tesco East Finchley Express,208-210 High Road,,London,East Finchley,N2 9AY,-0.1668989242058062,51.59316770447563,527076.4381365958,189849.1847801294,Rooftop,20230999.0,"< 3,013 ft2 (280m2)",Greater London
1010010904,Iceland,Iceland,Iceland East Finchley,21-25 Viceroy Parade,,London,East Finchley,N2 8AQ,-0.1645545996842655,51.59016865065151,527247.1914996856,189519.7482344528,Rooftop,,"3,013 < 15,069 ft2 (280 < 1,400 m2)",Greater London
1010005390,Tesco,Tesco Express,Tesco Golders Green Express,136-144 Golders Green Road,,London,Golders Green,NW11 8HB,-0.2012499072784478,51.574288080651854,524748.7614932803,187690.5582230196,Rooftop,,"< 3,013 ft2 (280m2)",Greater London
1010001512,Marks and Spencer,Marks and Spencer,M&S Brent Cross,Brent Cross Shopping Centre,Hendon,London,Brent Cross,NW4 3FE,-0.2231946444481948,51.57611039567357,523223.1937473019,187856.0326289748,Rooftop,,"30,138 ft2 > (2,800 m2)",Greater London
1010021936,Cook,Cook,Cook Barnes,50 Barnes High Street,,London,Barnes,SW13 9LN,-0.2498828,51.4737928,521646.0605748313,176433.1649839055,Rooftop,,"< 3,013 ft2 (280m2)",Greater London
1010007412,Lidl,Lidl,Lidl Norbury London,1 Hermitage Lane,,London,Norbury,SW16 3LH,-0.1237594160135485,51.41435155068502,530574.2315090059,170040.048168534,Rooftop,,"3,013 < 15,069 ft2 (280 < 1,400 m2)",Greater London
1010022409,Sainsburys,Sainsburys Local,Sainsburys Streatham - Greyhound Lane Local,20 Greyhound Ln,,London,Streatham Vale,SW16 5SD,-0.134112,51.418707,529842.0158212535,170506.00265958882,Rooftop,20240118.0,"< 3,013 ft2 (280m2)",Greater London
1010005602,Tesco,Tesco Express,Tesco Crystal Palace Express,74 Anerley Road,Crystal Palace,London,Crystal Palace,SE19 2AH,-0.0736208446845331,51.41689760553224,534053.241517873,170413.62817641045,Rooftop,,"< 3,013 ft2 (280m2)",Greater London
1010008504,The Co-operative Group,The Co-operative Food,Co-op Elmers End,70-72 Elmers End Road,Elmers End,London,Anerley,SE20 7UX,-0.0578412074323184,51.40620396425359,535181.9485207547,169253.44847426785,Rooftop,,"< 3,013 ft2 (280m2)",Greater London
1010008124,The Co-operative Group,The Co-operative Food,Co-op Thornton Heath,26-28 Green Lane,,London,Norbury,CR7 8BB,-0.1056530396781064,51.40873138653747,531849.4400122764,169447.46836874774,Rooftop,,"< 3,013 ft2 (280m2)",Greater London
1010014944,The Co-operative Group,The Co-operative Food,Co-op South Lodge Avenue - Mitcham,32 South Lodge Avenue,,London,Mitcham,CR4 1LU,-0.1328938056786968,51.39985178431378,529980.133407514,168411.4258614501,Rooftop,20189999.0,"< 3,013 ft2 (280m2)",Greater London
1010007006,Lidl,Lidl,Lidl Western Road Mitcham London,9-17 Western Road,,London,Mitcham,CR4 3ED,-0.166232347540145,51.40580873098694,527644.5715015032,169015.30815928365,Rooftop,,"3,013 < 15,069 ft2 (280 < 1,400 m2)",Greater London
1010000963,Asda,Asda Supermarket,Asda Mitcham Supermarket,St James Estate Bond Road,Mitcham,London,Mitcham,CR4 3EB,-0.1682907398604305,51.4074383724349,527496.8815011191,169192.9481596573,Rooftop,,"15,069 < 30,138 ft2 (1,400 < 2,800 m2)",Greater London
1010013003,Farmfoods,Farmfoods,Farmfoods Mitcham London,Unit 1-3 Upper Green East,Majestic Way,London,Mitcham,CR4 2JS,-0.1629816730562989,51.40613667833482,527869.7415020823,169057.43815985945,Rooftop,,"< 3,013 ft2 (280m2)",Greater London
1010024574,Tesco,Tesco Express,Tesco Church Rd Mitcham Express,Boundary Business Court 92-94 Church Road,,London,Mitcham,CR4 3TD,-0.1765183080921797,51.40545818415023,526930.1533254397,168958.4780706243,Third Party,20250807.0,"< 3,013 ft2 (280m2)",Greater London
1010013490,Marks and Spencer,Marks and Spencer Hospital,M&S Croydon University Hospital,530 London Road,,London,Thornton Heath,CR7 7YE,-0.1096893316021199,51.38894778571574,531625.4715117384,167240.25816024898,Rooftop,20169999.0,"< 3,013 ft2 (280m2)",Greater London
1010000097,Aldi,Aldi,Aldi Selsdon/South Croydon London,232-236 Addington Road,Selsdon,London,Selsdon/South Croydon,CR2 8LE,-0.059131563993309,51.34493659763674,535272.5515210324,162438.1281495738,Rooftop,,"15,069 < 30,138 ft2 (1,400 < 2,800 m2)",Greater London
1010019483,Aldi,Aldi,Aldi Purley Way,Purley Way,,London,Waddon,CR0 4XJ,-0.1189142201916639,51.37230401075187,531031.1350783675,165372.9421952662,Rooftop,20210923.0,"3,013 < 15,069 ft2 (280 < 1,400 m2)",Greater London
1010018746,Morrisons,Morrisons Daily,Morrisons Daily Forestdale,76 Selsdon Park Road,,London,Forestdale,CR2 8JT,-0.0398293878668868,51.35074773792249,536599.5101386629,163120.06853396905,Rooftop,20209999.0,"< 3,013 ft2 (280m2)",Greater London
1010004757,Tesco,Tesco Express,Tesco Croydon Saffron Square Express,Saffron Square,Wellsley Road,London,Croydon,CR9 2BY,-0.0993820383066474,51.37965818526162,532369.3815136467,166225.78815793677,Rooftop,,"< 3,013 ft2 (280m2)",Greater London
1010014333,Iceland,Iceland,Iceland Selsdon,206 Addington Road,,London,Selsdon/South Croydon,CR2 8LD,-0.0618385239846582,51.343733591670215,535087.5698205653,162299.36964872526,Rooftop,,"3,013 < 15,069 ft2 (280 < 1,400 m2)",Greater London
1010004752,Tesco,Tesco Express,Tesco Croydon South End Express,South End,Croydon,London,South Croydon,CR2 6EA,-0.0981702541441134,51.36351379980205,532500.2715139962,164432.70815163368,Rooftop,,"< 3,013 ft2 (280m2)",Greater London
1010008295,The Co-operative Group,The Co-operative Food,Co-op Shirley London,225-227 Wickham Road,Shirley,London,Shirley,CR0 8TG,-0.0470474357003503,51.37536412295672,536024.0015229176,165843.99816339143,Rooftop,,"< 3,013 ft2 (280m2)",Greater London
1010007004,Lidl,Lidl,Lidl Croydon London,76-78 Church Street,,London,Croydon,CR0 1RB,-0.103636614920124,51.37378148973621,532090.2115129426,165564.6281549933,Rooftop,,"3,013 < 15,069 ft2 (280 < 1,400 m2)",Greater London
1010018688,Lidl,Lidl,Lidl Selhurst,119/123 Whitehorse Road,,London,Selhurst,CR0 2LG,-0.0967630126384463,51.38779096972316,532528.1591772321,167134.888734508,Rooftop,20209999.0,"3,013 < 15,069 ft2 (280 < 1,400 m2)",Greater London
1010019302,Lidl,Lidl,Lidl Purley Way North,2 Trojan Way,,London,Beddington,CR0 4XL,-0.1198182940319525,51.37397175324233,530963.4558535756,165556.7830110063,Rooftop,20210805.0,"3,013 < 15,069 ft2 (280 < 1,400 m2)",Greater London
1010003419,Sainsburys,Sainsburys Local,Sainsburys Addiscombe Local,261 Lower Addiscombe Road,,London,Addiscombe,CR0 6RD,-0.0718939552495533,51.38085677665901,534278.7415184967,166409.01816218265,Rooftop,,"< 3,013 ft2 (280m2)",Greater London
1010021037,Marks and Spencer,Marks and Spencer,M&S Purley Way,330 Purley Way,,London,Waddon,CR0 4XJ,-0.1191391625712504,51.37202047171354,531016.2877700764,165341.0107611363,Rooftop,20230427.0,"30,138 ft2 > (2,800 m2)",Greater London
1010012748,Sainsburys,Sainsburys Local,Sainsburys Croydon Thorton Road Local,114-116 Thornton Road,,London,Thornton Heath,CR7 6BB,-0.1190814945534281,51.39175861604881,530963.991510045,167536.01816008845,Rooftop,20150899.0,"< 3,013 ft2 (280m2)",Greater London
1010015101,Budgens,Budgens,Budgens Waddon London,Purley Way Service Station,514 Purley Way,London,Waddon,CR0 4RE,-0.1186265145721252,51.36413080296472,531074.4775859748,164464.58774990082,Rooftop,20179999.0,"< 3,013 ft2 (280m2)",Greater London
1010019692,Tesco,Tesco Express,Tesco Croydon North End Road Express,77-81 North End Road,,London,Croydon,CR0 1TJ,-0.1014174501305607,51.376331253319805,532237.3191054934,165852.16070869472,Rooftop,20220699.0,"< 3,013 ft2 (280m2)",Greater London
1010014784,The Southern Co-operative,The Co-operative Food,Co-op Shirley Orchard Way,118-122 Orchard Way,,London,Monks Orchard,CR0 7NN,-0.0402035218824877,51.38596692154066,536468.7869018113,167035.73836757249,Rooftop,20179999.0,"< 3,013 ft2 (280m2)",Greater London
1010004750,Tesco,Tesco Express,Tesco Shirley Express,10-14 Bywood Avenue,Shirley,London,Monks Orchard,CR0 7RA,-0.0523024880542985,51.38857721324485,535619.2415218833,167303.5681679572,Rooftop,,"< 3,013 ft2 (280m2)",Greater London
1010010926,Iceland,Iceland,Iceland Wallington,84 Woodcote Road,,London,Wallington,SM6 0LY,-0.1498631061930536,51.35852252255207,528915.7415048499,163785.61814252124,Rooftop,,"3,013 < 15,069 ft2 (280 < 1,400 m2)",Greater London
1010013801,Aldi,Aldi,Aldi Coulsdon London,159 Brighton Road,,London,Coulsdon,CR5 2NH,-0.137721303055501,51.32094824702048,529867.1395073097,159628.72732915645,Rooftop,20150423.0,"3,013 < 15,069 ft2 (280 < 1,400 m2)",Greater London
1010005039,Tesco,Tesco Express,Tesco Wembley High St Express,Retail Unit B 492-500 High Road,Wembley,London,Wembley,HA9 7BN,-0.2952843185329098,51.55332409867098,518287.0314764434,185203.1282017702,Rooftop,,"< 3,013 ft2 (280m2)",Greater London
1010007134,Lidl,Lidl,Lidl Stanmore London,80-82 The Broadway,,London,Stanmore,HA7 4DU,-0.3085132549139419,51.61830135161552,517202.741473102,192407.778226763,Rooftop,,"3,013 < 15,069 ft2 (280 < 1,400 m2)",Greater London
1010012635,Asda,Asda Supermarket,Asda Wealdstone Supermarket,35-40 High Street,,London,Wealdstone,HA3 7AE,-0.3355204061688958,51.59423488217841,515394.03146847966,189688.4682132008,Rooftop,20150799.0,"3,013 < 15,069 ft2 (280 < 1,400 m2)",Greater London
1010009157,The Co-operative Group,The Co-operative Food,Co-op Northolt,52/58 Church Road,,London,Northolt,UB5 5AB,-0.373975757166926,51.54449115981858,512853.4136620638,184096.63608753023,Rooftop,,"< 3,013 ft2 (280m2)",Greater London
1010010890,Iceland,Iceland,Iceland South Harrow,274-278 Northolt Road,,London,South Harrow,HA2 8EB,-0.3552997986560066,51.56366314201608,514100.4814652581,186257.6481979389,Rooftop,,"3,013 < 15,069 ft2 (280 < 1,400 m2)",Greater London
1010019325,Aldi,Aldi,Aldi 330 Northolt Road,330 Northolt Rd,South Harrow,London,South Harrow,HA2 8EQ,-0.3567254547738469,51.562282259547466,514005.1172294712,186101.8626618032,Rooftop,20211021.0,"3,013 < 15,069 ft2 (280 < 1,400 m2)",Greater London
1010005027,Tesco,Tesco Express,Tesco Harrow Pinner Rd Express,503 Pinner Road,Harrow,London,North Harrow,HA2 6EH,-0.3631423113569298,51.58823790533257,513495.7314634606,188978.35820702303,Rooftop,,"< 3,013 ft2 (280m2)",Greater London
1010004868,Tesco,Tesco Express,Tesco Royal Victoria Dock Express,Unit B The Oxygen,Canning Town,London,Custom House,E16 1BL,0.0192125142477675,51.50834297284605,540227.7215332641,180756.17822581343,Rooftop,,"< 3,013 ft2 (280m2)",Greater London
1010024298,Marks and Spencer,Marks and Spencer,M&S Leytonstone,"Leytonstone, 829-837 High Road",,London,Leytonstone,E11 1HH,0.0116054524084538,51.56912358670102,539513.9854607846,187500.5596533575,Rooftop,20250717.0,"3,013 < 15,069 ft2 (280 < 1,400 m2)",Greater London
1010023409,Aldi,Aldi,"Aldi 829-837 High Road, Leytonstone",829-837 High Road,,London,Leytonstone,E11 1HH,0.0112679291043397,51.56915262443822,539490.5062611024,187503.1452911032,Rooftop,20241003.0,"3,013 < 15,069 ft2 (280 < 1,400 m2)",Greater London
1010010886,Iceland,Iceland,Iceland Leytonstone,787 High Road,,London,Leytonstone,E11 4QS,0.010155559131493,51.567261053089766,539419.2015310018,187290.6782484596,Rooftop,,"3,013 < 15,069 ft2 (280 < 1,400 m2)",Greater London
1010003476,Sainsburys,Sainsburys Local,Sainsburys Stratford Romford Road Local,165-167 Romford Road,,London,Forest Gate,E15 4JF,0.013179234238864,51.54405318314349,539699.791531808,184715.67823944817,Rooftop,,"< 3,013 ft2 (280m2)",Greater London
1010020496,The Co-operative Group,The Co-operative Food,Co-op Barking Riverside Development,Fielders Crescent,,London,Creekmouth,IG11 0DS,0.1250017099191414,51.52348205514369,547519.7461688044,182647.4972653957,Rooftop,20229999.0,"< 3,013 ft2 (280m2)",Greater London
1010022430,Tesco,Tesco Express,Tesco Seven Kings Express,Cameron Road,,London,Seven Kings,IG3 8LG,0.0960940226085555,51.56419685518665,545384.717422016,187117.16308423987,Rooftop,20249999.0,"< 3,013 ft2 (280m2)",Greater London
1010005074,Tesco,Tesco Express,Tesco Ilford Ley St Express,284 Ley Street,Ilford,London,Seven Kings,IG2 7RX,0.0820500863561777,51.56343753434822,544413.7815435738,187004.91825647565,Rooftop,,"< 3,013 ft2 (280m2)",Greater London
1010000205,Aldi,Aldi,Aldi Seven Kings London,High Road,Seven Kings,London,Seven Kings,IG3 8RS,0.1048117456297443,51.56519414709084,545985.7215474902,187245.41826019884,Rooftop,,"3,013 < 15,069 ft2 (280 < 1,400 m2)",Greater London
1010014096,Asda,Asda Superstore,Asda Barking Superstore,Genoa Building,2 Short Blue Place,London,Barking,IG11 8FJ,0.077193095889008,51.537310295863975,544159.6687896465,184089.96837109764,Rooftop,20150999.0,"30,138 ft2 > (2,800 m2)",Greater London
1010022859,Morrisons,Morrisons Daily,Morrisons Daily Abbey Road,"Unit 1, Dustin Road",,London,Barking,IG11 7EX,0.073218906620037,51.53732984083962,543884.0057899668,184084.32333553984,Rooftop,20249999.0,"< 3,013 ft2 (280m2)",Greater London
1010005072,Tesco,Tesco Express,Tesco Ilford Cranbrook Rd Express,74-76 Cranbrook Road,,London,Ilford,IG1 4NH,0.0696371667883783,51.56093201102168,543561.3515414504,186701.87825381133,Rooftop,,"< 3,013 ft2 (280m2)",Greater London
1010007148,Lidl,Lidl,Lidl Barking London,62-82 Ripple Road,Stag Island,London,Barking,IG11 7PH,0.081438216818281,51.53595033983774,544458.3615437825,183947.10824527903,Rooftop,,"3,013 < 15,069 ft2 (280 < 1,400 m2)",Greater London
1010004219,Tesco,Tesco,Tesco Ilford Superstore (Barkingside),796 Cranbrook Road,Barkingside,London,Barkingside,IG6 1HY,0.0819163535420485,51.5860212822468,544333.0015432795,189515.998265606,Rooftop,,"15,069 < 30,138 ft2 (1,400 < 2,800 m2)",Greater London
1010010897,Iceland,Iceland,Iceland Ilford,60 High Road,,London,Ilford,IG1 1DL,0.0706474381824781,51.55820828149229,543639.9515416578,186400.9782528418,Rooftop,,"3,013 < 15,069 ft2 (280 < 1,400 m2)",Greater London
1010005999,Tesco,Tesco Express Esso,Tesco Barking Esso Express,Ripple Road,Oldings Corner,London,Dagenham West,IG11 9BG,0.1055574905879137,51.533408628904496,546139.1615479792,183712.3382474621,Rooftop,,"< 3,013 ft2 (280m2)",Greater London
1010014180,Lidl,Lidl,Lidl High Road Ilford London,High Road,,London,Ilford,IG1 1DE,0.0732305122362224,51.55910815558424,543816.1631673638,186506.1182170983,Rooftop,20179999.0,"3,013 < 15,069 ft2 (280 < 1,400 m2)",Greater London
1010006185,Tesco,Tesco Extra,Tesco Beckton Extra Gallions Reach,1 Armada Way,Beckton,London,Beckton,E6 7FB,0.0755141330294765,51.51761396906815,544105.3715429571,181896.41823709325,Rooftop,,"30,138 ft2 > (2,800 m2)",Greater London
1010005076,Tesco,Tesco Express,Tesco Woodford Green Express,253-269 High Road,Woodford Green,London,South Woodford,IG8 9FB,0.0197861106170071,51.5999513098422,539986.1915322791,190944.30826302484,Rooftop,,"< 3,013 ft2 (280m2)",Greater London
1010004220,Tesco,Tesco,Tesco Woodford Green Superstore,Southend Road,Woodford Green,London,Redbridge,IG8 8GE,0.0401532644029413,51.59211438763688,541421.0015359389,190111.998262546,Rooftop,,"15,069 < 30,138 ft2 (1,400 < 2,800 m2)",Greater London
1010004888,Tesco,Tesco Express,Tesco Upton Park Express,36-40 Barking Road,Upton Park,London,Upton Park,E6 1PU,0.0397858046211898,51.53033311806656,541587.1815366109,183241.0982374512,Rooftop,,"< 3,013 ft2 (280m2)",Greater London
1010025034,Tesco,Tesco Express,Tesco Wanstead Flats Express,89 - 93 Aldersbrook Road Wanstead,,London,Aldersbrook,E12 5DG,0.042761072,51.55870081,541705.4442337996,186401.38584863924,Rooftop,20251120.0,"< 3,013 ft2 (280m2)",Greater London
1010004889,Tesco,Tesco Express,Tesco East Ham High St Express,189 High Street,East Ham,London,East Ham,E6 3PA,0.0570147591751323,51.52590907138527,542795.9915396576,182782.5982379717,Rooftop,,"< 3,013 ft2 (280m2)",Greater London
1010002931,Sainsburys,Sainsburys,Sainsburys East Ham,2-10 Myrtle Road,,London,East Ham,E6 1HU,0.0526793592028591,51.53406390186695,542469.8215388131,183680.9782406814,Rooftop,,"3,013 < 15,069 ft2 (280 < 1,400 m2)",Greater London
1010010798,Iceland,Iceland,Iceland 480-482 Barking Road Plaistow,480-482 Barking Road,,London,Plaistow,E13 8QB,0.0260707301242705,51.5237241509976,540656.2715342927,182479.738232948,Rooftop,,"3,013 < 15,069 ft2 (280 < 1,400 m2)",Greater London
1010001942,Marks and Spencer,Marks and Spencer Simply Food,M&S South Woodford SF,George Lane,,London,South Woodford,E18 1AY,0.0241677994437364,51.59415671295761,540307.4815331197,190308.328261254,Rooftop,,"3,013 < 15,069 ft2 (280 < 1,400 m2)",Greater London
1010001990,Marks and Spencer,Marks and Spencer Simply Food,M&S Surbiton Ik SF,78 Victoria Road,,London,Surbiton,KT6 4NS,-0.3054275131676981,51.39253551925989,517997.601476451,167306.2581348127,Rooftop,,"3,013 < 15,069 ft2 (280 < 1,400 m2)",Greater London
1010022049,Morrisons,Morrisons Daily,Morrisons Daily Chessington North Parade,16-18 North Parade,,London,Chessington,KT9 1QF,-0.2986163785973665,51.36422204732968,518544.5163697334,164168.6762658017,Rooftop,20249999.0,"< 3,013 ft2 (280m2)",Greater London
1010007168,Lidl,Lidl,Lidl New Malden London,31-35 Blagdon Road,,London,New Malden,KT3 4AH,-0.2538309525681895,51.4002798340444,521566.7115170222,168251.68819505343,Rooftop,,"3,013 < 15,069 ft2 (280 < 1,400 m2)",Greater London
1010015200,Sainsburys,Sainsburys Local,Sainsburys Kingston Penryhn Road Local,77 Penrhyn Road,,London,Kingston Upon Thames,KT1 2EQ,-0.3042648747992364,51.4022277515879,518053.555476567,168385.94243889535,Rooftop,20179999.0,"< 3,013 ft2 (280m2)",Greater London
1010003029,Sainsburys,Sainsburys,Sainsburys Kingston,6-12 Eden Walk,Kingston Upon Thames,London,Kingston Upon Thames,KT1 1BU,-0.3034057694428543,51.40971130175297,518094.0491660867,169219.52615354955,Rooftop,,"3,013 < 15,069 ft2 (280 < 1,400 m2)",Greater London
1010015677,The Co-operative Group,The Co-operative Food,Co-op Kingston Lower Marsh Lane,Lower Marsh Lane,,London,Berrylands,KT1 3BJ,-0.2945851265062845,51.40125417503982,518729.363183614,168293.29712805734,Rooftop,20199999.0,"< 3,013 ft2 (280m2)",Greater London
1010022037,Marks and Spencer,Marks and Spencer Food Outlet,M&S New Malden Food,53-59 High Street,,London,New Malden,KT3 4EZ,-0.2565496465140847,51.4019013619854,521373.3129216063,168427.50614014018,Rooftop,20240208.0,"< 3,013 ft2 (280m2)",Greater London
1010015832,Budgens,Budgens,Budgens Kingston Esso Service Station,Shannon Corner,,London,West Barnes,KT3 6HF,-0.2436320250736236,51.39869254672741,522280.3679053447,168092.12593488098,Rooftop,20199999.0,"< 3,013 ft2 (280m2)",Greater London
1010016163,Lidl,Lidl,Lidl Fulwell South Road,50 South Road,,London,Fulwell,TW2 5NT,-0.3504720320603426,51.435532070136105,514756.1788965669,172016.20592392632,Rooftop,20209999.0,"3,013 < 15,069 ft2 (280 < 1,400 m2)",Greater London
1010003309,Sainsburys,Sainsburys,Sainsburys Hampton,30 Tangley Park Road,,London,Hampton,TW12 3YH,-0.3775999689777246,51.42643982451397,512893.0014628354,170962.99813868507,Rooftop,,"3,013 < 15,069 ft2 (280 < 1,400 m2)",Greater London
1010015788,The Co-operative Group,The Co-operative Food,Co-op Twickenham - Hampton Road,224-230 Hampton Road,,London,Twickenham,TW2 5NJ,-0.3509624149171679,51.43627075506774,514720.2453802951,172097.58425190713,Rooftop,20199999.0,"< 3,013 ft2 (280m2)",Greater London
1010014001,Sainsburys,Sainsburys Local,Sainsburys Teddington High Street Local,196 High Street Teddington,,London,Teddington,TW11 8HU,-0.3257845045720897,51.4275874603001,516492.30147236335,171171.6481462429,Rooftop,20169999.0,"< 3,013 ft2 (280m2)",Greater London
1010003932,Sainsburys,Sainsburys Local,Sainsburys Hampton Hill Local,68-78 High Street,Hampton Hill,London,Hampton Hill,TW12 1NH,-0.3558009002585058,51.42675475442582,514407.69146685424,171031.79814179742,Rooftop,,"< 3,013 ft2 (280m2)",Greater London
1010005817,Tesco,Tesco Express,Tesco Richmond Express,185 Ashburnham Road,Ham,London,Ham,TW10 7NR,-0.3207768742143014,51.43661256564826,516817.421473184,172183.24815060012,Rooftop,,"< 3,013 ft2 (280m2)",Greater London
1010001611,Marks and Spencer,Marks and Spencer,M&S Richmond,13 George Street,,London,Richmond,TW9 1JY,-0.3054831093535252,51.45992294637602,517820.4414757269,174799.948162177,Rooftop,,"15,069 < 30,138 ft2 (1,400 < 2,800 m2)",Greater London
1010003939,Sainsburys,Sainsburys Local,Sainsburys Richmond Station Local,27D-27E The Quadrant,,London,Richmond,TW9 1DN,-0.3020780315241082,51.46285421637492,518049.4314763167,175131.39816383447,Rooftop,,"< 3,013 ft2 (280m2)",Greater London
1010005823,Tesco,Tesco Express,Tesco Twickenham Express,166 Heath Road,Twickenham,London,Twickenham,TW1 4BW,-0.3379903674390067,51.44537098068544,515598.911469927,173129.948151814,Rooftop,,"< 3,013 ft2 (280m2)",Greater London
1010002066,Marks and Spencer,Marks and Spencer Simply Food,M&S Teddington SF,99-107 High Street,,London,Teddington,TW11 8HG,-0.3291366184529363,51.42755480875096,516259.35147174855,171162.6981457718,Rooftop,,"3,013 < 15,069 ft2 (280 < 1,400 m2)",Greater London
1010022019,Cook,Cook,Cook Teddington,156 High Street,,London,Teddington,TW11 8HZ,-0.3272991952848369,51.42736544608661,516387.5665517624,171144.55435082392,Rooftop,,"< 3,013 ft2 (280m2)",Greater London
1010006813,Waitrose,Waitrose,Waitrose Biggin Hill,168 Main Road,BIGGIN HILL,Biggin Hill,,TN16 3BB,0.0367386180209256,51.3089903023324,542060.0015380149,158621.99814847347,Rooftop,,"15,069 < 30,138 ft2 (1,400 < 2,800 m2)",Greater London
1010005732,Tesco,Tesco Express,Tesco Streatham High St Express,42-50 Streatham High Street,Streatham,London,Streatham,SW16 1DA,-0.1280665947137914,51.436961294305824,530210.491508019,172546.63817706634,Rooftop,,"< 3,013 ft2 (280m2)",Greater London
1010007411,Lidl,Lidl,Lidl Streatham London,222-224 Streatham High Road,Streatham,London,Streatham,SW16 1BB,-0.1297731986428517,51.43109494776154,530108.5315077732,171891.2581744616,Rooftop,,"3,013 < 15,069 ft2 (280 < 1,400 m2)",Greater London
1010015036,Marks and Spencer,Marks and Spencer Foodhall,M&S Streatham High Road Foodhall,352 Streatham High Road,,London,Streatham,SW16 6HP,-0.131324676981681,51.42568453702745,530016.0310075495,171286.85727207153,Rooftop,20171025.0,"3,013 < 15,069 ft2 (280 < 1,400 m2)",Greater London
1010024056,Spar,Spar PFS,EG - OTM - Streatham,275 Streatham Common S,,London,Streatham,SW16 3NN,-0.1275139841627522,51.41968168503918,530298.0063218559,170626.0914630986,Rooftop,20259999.0,"< 3,013 ft2 (280m2)",Greater London
1010014367,Budgens,Budgens,Budgens MFG Streatham,120 Leigham Court Road,,London,Streatham,SW16 2RW,-0.1172613376437172,51.43271212778918,530973.6238654589,172093.36679443304,Rooftop,20179999.0,"< 3,013 ft2 (280m2)",Greater London
1010014886,Lidl,Lidl,Lidl West Norwood London,Beulah Hill,,London,West Norwood,SE19 3HD,-0.1065232655598618,51.42215372609895,531750.3542119961,170938.48937403795,Rooftop,20190919.0,"3,013 < 15,069 ft2 (280 < 1,400 m2)",Greater London
1010015218,Budgens,Budgens,Budgens Westow Hill London,63-65 Westow Hill,,London,Gipsy Hill,SE19 1TS,-0.0798919118292026,51.419849812609904,533608.5977167374,170730.4730767418,Rooftop,20179999.0,"< 3,013 ft2 (280m2)",Greater London
1010006094,Tesco,Tesco Express Esso,Tesco Tooting Balham High Rd Esso Express,219 Balham High Road,Tooting,London,Balham,SW17 7BQ,-0.1559009182028695,51.4388182962245,528270.7415030295,172704.07817401458,Rooftop,,"< 3,013 ft2 (280m2)",Greater London
1010005736,Tesco,Tesco Express,Tesco Tooting Upper Tooting Rd Express,130 Upper Tooting Road,Tooting,London,Upper Tooting,SW17 7EN,-0.1640299769186332,51.43278355172718,527722.5915016348,172018.80817047152,Rooftop,,"< 3,013 ft2 (280m2)",Greater London
1010005729,Tesco,Tesco Express,Tesco East Sheen Express,385-387 Upper Richmond Road,East Sheen,London,East Sheen,SW14 7NX,-0.2679448736965064,51.46430082161103,520416.6614825305,175347.7881690751,Rooftop,,"< 3,013 ft2 (280m2)",Greater London
1010014232,Marks and Spencer,Marks and Spencer Foodhall,M&S Barnes Foodhall,28-29 High Street,,London,Barnes,SW13 9LW,-0.2502307046527399,51.47349137234808,521622.7004856482,176399.06747522706,Rooftop,20161199.0,"3,013 < 15,069 ft2 (280 < 1,400 m2)",Greater London
1010003856,Sainsburys,Sainsburys Local,Sainsburys Barnes High Street Local,11 Barnes High Street,,London,Barnes,SW13 9LW,-0.2490082370150739,51.47355406182244,521707.4314858692,176408.06817542168,Rooftop,,"< 3,013 ft2 (280m2)",Greater London
1010005861,Tesco,Tesco Express,Tesco Chiswick Express,248 Chiswick High Road,Chiswick,London,Turnham Green,W4 1PD,-0.2585825670812226,51.49273593088872,520991.78148390655,178525.32818193384,Rooftop,,"< 3,013 ft2 (280m2)",Greater London
1010014371,Budgens,Budgens,Budgens Acton Green London,BP Chiswick Service Station,70 South Parade,London,Acton Green,W4 5LG,-0.2635481448791751,51.49625921104889,520637.7840829608,178908.94688269682,Rooftop,20179999.0,"< 3,013 ft2 (280m2)",Greater London
1010015792,The Co-operative Group,The Co-operative Food,Co-op Chiswick - Station Parade,6 Station Parade,,London,Chiswick,W4 3HD,-0.267792349693575,51.48162732108455,520381.6780559843,177274.82763708284,Rooftop,20199999.0,"< 3,013 ft2 (280m2)",Greater London
1010010911,Iceland,Iceland,Iceland Harlesden,71-75 High Street,,London,Harlesden,NW10 4NS,-0.2464846829960211,51.53613223335984,521715.9714855749,183371.268201301,Rooftop,,"3,013 < 15,069 ft2 (280 < 1,400 m2)",Greater London
1010010405,Asda,Asda PFS,Asda Bethnal Green Vallance Road Petrol Filling Station,112 Vallance Road,,London,Bethnal Green,E1 5BW,-0.0640319916078722,51.522153216261216,534410.5215184751,182135.8182202106,Rooftop,20159999.0,"< 3,013 ft2 (280m2)",Greater London
1010006625,Waitrose,Waitrose,Waitrose St Katharine Docks,Thomas More Street,St Katherines Docks,London,Wapping,E1W 1YY,-0.0672540609752499,51.506830642580944,534232.0015180791,180425.9982135719,Rooftop,,"15,069 < 30,138 ft2 (1,400 < 2,800 m2)",Greater London
1010003486,Sainsburys,Sainsburys Local,Sainsburys Hackney Mare Street Local,27-31 Mare Street,,London,South Hackney,E8 4RB,-0.057502337011711,51.535253205485326,534824.8215194772,183604.5782264089,Rooftop,,"< 3,013 ft2 (280m2)",Greater London
1010013994,Sainsburys,Sainsburys Local,Sainsburys Tower Hamlets Commercial Road Local,327-329 Commercial Road,,London,Shadwell,E1 2PS,-0.0544162546124163,51.51448393945492,535100.2615202628,181300.6682183944,Rooftop,20160799.0,"< 3,013 ft2 (280m2)",Greater London
1010003480,Sainsburys,Sainsburys Local,Sainsburys Tower Hamlets Leman Street Local,Goodmans Fields,,London,Aldgate,E1 8NN,-0.0698989353323514,51.51325372581618,534029.6215175384,181135.41821581416,Rooftop,,"< 3,013 ft2 (280m2)",Greater London
1010003484,Sainsburys,Sainsburys Local,Sainsburys Hackney Lower Clapton Road Local,13 Lower Clapton Road,,London,Hackney,E5 0NS,-0.0543455473362262,51.550153010194215,534999.6815198571,185267.2982328872,Rooftop,,"3,013 < 15,069 ft2 (280 < 1,400 m2)",Greater London
1010002023,Marks and Spencer,Marks and Spencer Simply Food,M&S Swiss Cottage SF,151 Finchley Road,Swiss Cottage,London,Swiss Cottage,NW3 6JH,-0.1758126292637618,51.54411536696261,526595.1014982604,184378.8682140948,Rooftop,,"3,013 < 15,069 ft2 (280 < 1,400 m2)",Greater London
1010002114,Marks and Spencer,Marks and Spencer Hospital,M&S Royal Free Hospital,Pond Street,,London,Belsize Park,NW3 2QG,-0.1652992359361616,51.553188178397,527298.791500037,185406.0382192171,Rooftop,,"< 3,013 ft2 (280m2)",Greater London
1010015721,The Co-operative Group,The Co-operative Food,Co-op Kensal Green - Harrow Road,765-767 Harrow Road,,London,Kensal Green,NW10 5NY,-0.2320745536916834,51.53146306997492,522727.8964815156,182876.0831244446,Rooftop,20199999.0,"< 3,013 ft2 (280m2)",Greater London
1010005402,Tesco,Tesco Express,Tesco High Rd Kilburn Express,34-36 High Road,Kilburn,London,Kilburn Park,NW6 5UA,-0.1916763886140069,51.53688268725481,525514.9914954922,183547.2482090088,Rooftop,,"< 3,013 ft2 (280m2)",Greater London
1010005394,Tesco,Tesco Express,Tesco Cricklewood Broadway Express,214-218 Cricklewood Broadway,Portfield,London,Cricklewood,NW2 3DR,-0.2168986204117655,51.558346250799175,523707.6214906584,185891.17821438552,Rooftop,,"< 3,013 ft2 (280m2)",Greater London
1010009274,The Co-operative Group,The Co-operative Food,Co-op Cricklewood,Cricklewood Lane,Cricklewood,London,Cricklewood,NW2 1ET,-0.215117662385351,51.5571937213569,523834.20259099617,185766.0218141472,Rooftop,,"3,013 < 15,069 ft2 (280 < 1,400 m2)",Greater London
1010005400,Tesco,Tesco Express,Tesco West Hampstead Express,176-180 West End Lane,West Hampstead,London,West Hampstead,NW6 1SG,-0.1912204784882288,51.54950918225997,525511.8914954152,184952.1582142242,Rooftop,,"< 3,013 ft2 (280m2)",Greater London
1010002022,Marks and Spencer,Marks and Spencer Foodhall,M&S Hampstead Foodhall,10 Pond Street,Hampstead,London,Belsize Park,NW3 2PS,-0.1650115310520933,51.553846060980256,527316.9015000805,185479.69821952528,Rooftop,,"3,013 < 15,069 ft2 (280 < 1,400 m2)",Greater London
1010003128,Sainsburys,Sainsburys,Sainsburys Finchley Rd,02 Centre,255 Finchley Road,London,Frognal,NW3 6LU,-0.1821036075481693,51.54805394505462,526148.0014970775,184805.99821485544,Rooftop,,"30,138 ft2 > (2,800 m2)",Greater London
1010003727,Sainsburys,Sainsburys Local,Sainsburys Queens Park Local,105-109 Salusbury Road,,London,Queens Park,NW6 6RG,-0.206248317042741,51.5373528804752,524503.1314928549,183574.65820723056,Rooftop,,"< 3,013 ft2 (280m2)",Greater London
1010019545,Sainsburys,Sainsburys Local,Sainsburys Hampstead High Street Local, 35 Hampstead High St,,London,Hampstead,NW3 1QE,-0.1775999749780463,51.55629999086311,526437.4086832481,185730.76855190715,Rooftop,20220317.0,"< 3,013 ft2 (280m2)",Greater London
1010003728,Sainsburys,Sainsburys Local,Sainsburys Kilburn Local,377 Kilburn High Road,,London,Brondesbury,NW6 7QE,-0.2028586169185722,51.54575268703452,524715.2614933612,184514.52821112104,Rooftop,,"< 3,013 ft2 (280m2)",Greater London
1010021964,Cook,Cook,Cook Fulham,847 Fulham Road,,London,Parsons Green,SW6 5HJ,-0.2064824,51.4746286,524657.8190788581,176599.0384387822,Rooftop,,"< 3,013 ft2 (280m2)",Greater London
1010005761,Tesco,Tesco Express,Tesco South Kensington Express,87-93 Gloucester Road,South Kensington,London,South Kensington,SW7 4SS,-0.1822624666422235,51.49437751531146,526285.2614976978,178836.6681929524,Rooftop,,"< 3,013 ft2 (280m2)",Greater London
1010006805,Waitrose,Waitrose,Waitrose Fulham,402 North End Road,Fulham,London,Fulham Broadway,SW6 1LX,-0.1994114771284469,51.48019161202572,525133.6514947698,177229.7181848645,Rooftop,,"15,069 < 30,138 ft2 (1,400 < 2,800 m2)",Greater London
1010010829,Iceland,Iceland,Iceland Fulham,290-302 North End Road,,London,Fulham Broadway,SW6 1NQ,-0.2012412834247461,51.48314306139652,524998.5314944065,177554.80818581255,Rooftop,,"3,013 < 15,069 ft2 (280 < 1,400 m2)",Greater London
1010006098,Tesco,Tesco Express Esso,Tesco Fulham Kings Rd Esso Express,601 Kings Road,,London,Walham Green,SW6 2EL,-0.1893450217624664,51.477924715324576,525838.8714966091,176994.8681853136,Rooftop,,"< 3,013 ft2 (280m2)",Greater London
1010014621,Tesco,Tesco Express,Tesco West Brompton Express,294 Old Brompton ROAd,,London,Earls Court,SW5 9JF,-0.1929940052914409,51.48855382788364,525556.3113958321,178170.6074891272,Rooftop,20179999.0,"< 3,013 ft2 (280m2)",Greater London
1010010591,Sainsburys,Sainsburys Local,Sainsburys Fulham Wandsworth Bridge Road Local,132 Wandsworth Bridge Road,,London,Parsons Green,SW6 2UL,-0.1918396170035008,51.47237266132484,525680.8914962217,176373.17818271636,Rooftop,20159999.0,"< 3,013 ft2 (280m2)",Greater London
1010003885,Sainsburys,Sainsburys Local,Sainsburys Earls Court Local,162-164 Earls Court Road,,London,Earls Court,SW5 9QQ,-0.1952033720199854,51.49375376549039,525388.6714953743,178745.0781909445,Rooftop,,"< 3,013 ft2 (280m2)",Greater London
1010003849,Sainsburys,Sainsburys Local,Sainsburys Beaufort Street Local,295-297 Fulham Road,,London,Chelsea,SW10 9PZ,-0.1787726172328867,51.4870540175553,526547.771498409,178028.28819045372,Rooftop,,"< 3,013 ft2 (280m2)",Greater London
1010023637,Sainsburys,Sainsburys Local,Sainsburys Hammersmith Broadway Shopping Centre Local,Broadway Shopping Centre,,London,Hammersmith,W6 9YD,-0.224556,51.492304,523355.0194737708,178534.03227480722,Rooftop,20250206.0,"< 3,013 ft2 (280m2)",Greater London
1010005864,Tesco,Tesco Express,Tesco Fulham Palace Rd Express,168-188 Fulham Palace Road,Fulham,London,Hammersmith,W6 9PA,-0.2204752171256156,51.48525704513308,523657.35149090784,177757.25818406077,Rooftop,,"< 3,013 ft2 (280m2)",Greater London
1010010835,Iceland,Iceland,Iceland Hammersmith,111-117 King Street,,London,Hammersmith,W6 9JG,-0.2301249609579831,51.49228023254678,522968.49148907926,178522.0281856131,Rooftop,,"3,013 < 15,069 ft2 (280 < 1,400 m2)",Greater London
1010022857,Morrisons,Morrisons Daily,Morrisons Daily Barons Court Margravine,1 Margravine Gardens,Barons Court,London,West Kensington,W6 8RL,-0.2134478660210338,51.48999729687326,524132.3945609568,178296.27678701066,Rooftop,20249999.0,"< 3,013 ft2 (280m2)",Greater London
1010019062,Lidl,Lidl,Lidl Hammersmith Kings Mall,Kings Mall,,London,Hammersmith,W6 9HW,-0.2271613426053442,51.49302526562515,523172.2167578248,178609.85722458112,Rooftop,20210311.0,"3,013 < 15,069 ft2 (280 < 1,400 m2)",Greater London
1010003314,Sainsburys,Sainsburys,Sainsburys Ladbroke Grove,Ladbroke Grove,,London,Kensal Town,W10 5AA,-0.2176545617348618,51.52631626923866,523742.0014909287,182327.99820118304,Rooftop,,"30,138 ft2 > (2,800 m2)",Greater London
1010019084,Marks and Spencer,Marks and Spencer Simply Food,M&S Waterside SF,35 N Wharf Rd,,London,Paddington,W2 1NW,-0.175162032091768,51.5185293095956,526711.1783242474,181534.7087458525,Rooftop,20219999.0,"3,013 < 15,069 ft2 (280 < 1,400 m2)",Greater London
1010006831,Waitrose,Little Waitrose Shell,Waitrose Kensington Gardens,104-105 Bayswater Road,,London,Bayswater,W2 3HJ,-0.1840292370511421,51.510774513635695,526117.3814971882,180657.0381993892,Rooftop,,"< 3,013 ft2 (280m2)",Greater London
1010022918,Budgens,Budgens,Budgens Formosa Street,12 Formosa Street,,London,Maida Vale,W9 1EE,-0.184894692404832,51.52464495481424,526019.0691049338,182198.00249408715,Rooftop,20249999.0,"< 3,013 ft2 (280m2)",Greater London
1010001309,Budgens,Budgens,Budgens Paddington London,171-173 Praed Street,Paddington,London,Paddington,W2 1RH,-0.1751828473862048,51.51568135617227,526717.6314987219,181217.968202584,Rooftop,,"< 3,013 ft2 (280m2)",Greater London
1010006108,Tesco,Tesco Express Esso,Tesco Maida Vale Esso Express,115 Maida Vale,Maida Vale,London,Maida Vale,W9 1UP,-0.1819852081775489,51.52840429142908,526210.5114973438,182621.06820685108,Rooftop,,"< 3,013 ft2 (280m2)",Greater London
1010003957,Sainsburys,Sainsburys Local,Sainsburys Paddington Station Local,Station Concourse,Paddington Station,London,Paddington,W2 1HB,-0.1765839411372025,51.515697130150855,526620.3756266534,181217.2992422665,Rooftop,,"< 3,013 ft2 (280m2)",Greater London
1010002069,Marks and Spencer,Marks and Spencer Simply Food,M&S Notting Hill Gate SF,146-154 Notting Hill Gate,,London,Notting Hill,W11 3QG,-0.1979110523680883,51.5090437406199,525158.8524673067,180440.7586599777,Rooftop,,"3,013 < 15,069 ft2 (280 < 1,400 m2)",Greater London
1010003972,Sainsburys,Sainsburys Local,Sainsburys Kensington Church Street Local,61-65 Kensington Church Street,,London,Kensington,W8 4BA,-0.1935474148363769,51.50415359528117,525475.0814955514,179904.4181954069,Rooftop,,"< 3,013 ft2 (280m2)",Greater London
1010020859,Sainsburys,Sainsburys Local,Sainsburys Shepherds Bush - The Broadway Local,Broadway,19 Shepherd's Bush Grn,London,Shepherd's Bush,W12 8PP,-0.2190187737021785,51.503989841362845,523707.7908171917,179842.8876135979,Rooftop,20230299.0,"< 3,013 ft2 (280m2)",Greater London
1010015076,Lidl,Lidl,Lidl Shepherd's Bush London,Shepherd's Bush Green,,London,Shepherd's Bush,W12 8PP,-0.2183723850702838,51.5040033151196,523752.6144910694,179845.47769198305,Rooftop,20180222.0,"3,013 < 15,069 ft2 (280 < 1,400 m2)",Greater London
1010003973,Sainsburys,Sainsburys Local,Sainsburys Westbourne Park Harrow Road Local,478 Harrow Road,,London,Maida Hill,W9 3RU,-0.200957884673058,51.524114068130366,524906.2237939748,182111.44690253813,Rooftop,,"< 3,013 ft2 (280m2)",Greater London
1010010053,The Co-operative Group,The Co-operative Food,Co-op Paddington,504 - 506 Harrow Road,Paddington,London,Maida Hill,W9 3QA,-0.2025305491965117,51.52494071846215,524794.8691936806,182200.69330266755,Rooftop,,"3,013 < 15,069 ft2 (280 < 1,400 m2)",Greater London
1010025035,Tesco,Tesco Express,Tesco West Kilburn Express,425 Harrow Road,,London,West Kilburn,W10 4RE,-0.2056254457702394,51.526128729478295,524576.9389134505,182327.53661418072,Third Party,20259999.0,"< 3,013 ft2 (280m2)",Greater London
1010002133,Marks and Spencer,Marks and Spencer Travel SF,M&S Paddington Rail SF,Select Service Partner Paddington Station,,London,Paddington,W2 1HA,-0.1766144762167292,51.51626214224519,526616.6914984572,181280.0782026255,Rooftop,,"< 3,013 ft2 (280m2)",Greater London
1010005746,Tesco,Tesco Express,Tesco Victoria Monck St Express,Unit 2 Monck Street,Victoria,London,Westminster,SW1P 2BW,-0.1306141119169803,51.49654120737932,529864.3015069318,179167.56820083177,Rooftop,,"< 3,013 ft2 (280m2)",Greater London
1010006535,Waitrose,Little Waitrose,Little Waitrose Victoria Street,62 Victoria Street,Westminster,London,St James's Park,SW1E 6QP,-0.1373609839831884,51.4975863935536,529393.0315057142,179271.85820034228,Rooftop,,"< 3,013 ft2 (280m2)",Greater London
1010005747,Tesco,Tesco Express,Tesco Pimlico Express,Lupus Street,Pimlico,London,Pimlico,SW1V 3EN,-0.1408404807062446,51.4876818346554,529179.4915052035,178164.29819585208,Rooftop,,"< 3,013 ft2 (280m2)",Greater London
1010006536,Waitrose,Little Waitrose,Little Waitrose Pimlico,19-21 Warwick Way,Pimlico,London,Pimlico,SW1V 1QT,-0.1395503381901895,51.49251131944968,529255.4115053804,178703.6281979868,Rooftop,,"< 3,013 ft2 (280m2)",Greater London
1010019685,Tesco,Tesco Express,Tesco Strutton Ground Express,41-45 Strutton Ground Westminster,,London,Westminster,SW1P 2HY,-0.133669987504253,51.49702999538782,529650.8019151611,179216.51048916235,Rooftop,20220699.0,"< 3,013 ft2 (280m2)",Greater London
1010003953,Sainsburys,Sainsburys Local,Sainsburys Oxford Circus Berners St Local,1 Berners Street,,London,Fitzrovia,W1T 3LA,-0.1359096044009534,51.5162534772568,529440.9015057582,181350.26820812505,Rooftop,,"< 3,013 ft2 (280m2)",Greater London
1010005852,Tesco,Tesco Express,Tesco Mayfair Express,50-52 Curzon Street,Mayfair,London,Mayfair,W1J 7UP,-0.145739805375758,51.507058261017626,528784.7715041069,180310.3982030552,Rooftop,,"< 3,013 ft2 (280m2)",Greater London
1010005853,Tesco,Tesco Express,Tesco Tottenham Court Rd Express,124-125 Tottenham Court Road,,London,Fitzrovia,W1T 5AS,-0.1378275418259131,51.523999328335215,529285.9115053236,182208.24821101472,Rooftop,,"< 3,013 ft2 (280m2)",Greater London
1010002071,Marks and Spencer,Marks and Spencer Simply Food,M&S Tottenham Court Rd SF,55 Tottenham Court Road,,London,Fitzrovia,W1T 2EQ,-0.1337707925439566,51.51950973464909,529580.0615061023,181716.15820974187,Rooftop,,"3,013 < 15,069 ft2 (280 < 1,400 m2)",Greater London
1010003955,Sainsburys,Sainsburys Local,Sainsburys Great Portland Street Local,202 Great Portland Street,,London,Fitzrovia,W1W 5QQ,-0.1433844453544807,51.52195331739222,528906.2015043531,181970.92820943828,Rooftop,,"< 3,013 ft2 (280m2)",Greater London
1010019150,Morrisons,Morrisons,Morrisons Camden,Chalk Farm Road,,London,Chalk Farm,NW1 8EH,-0.1499178552916236,51.54289247757468,528394.0766593022,184287.9702635105,Rooftop,20219999.0,"30,138 ft2 > (2,800 m2)",Greater London
1010003719,Sainsburys,Sainsburys Local,Sainsburys London Euston Station Local,Euston Station,,London,Euston,NW1 2DU,-0.1340950714765966,51.52763968097055,529534.509876333,182619.6653073129,Rooftop,,"< 3,013 ft2 (280m2)",Greater London
1010006038,Tesco,Tesco Express Esso,Tesco Camden Esso Express,196 Camden Road,Camden,London,Camden Town,NW1 9HG,-0.1333675809947966,51.54535717211514,529534.7015058616,184591.20822031907,Rooftop,,"< 3,013 ft2 (280m2)",Greater London
1010010279,The Co-operative Group,The Co-operative Food,Co-op Camden Parkway,73-74 Parkway,,London,Camden Town,NW1 7AH,-0.1452051850194568,51.53783485261432,528735.1198038352,183733.8160156564,Rooftop,,"< 3,013 ft2 (280m2)",Greater London
1010010065,The Co-operative Group,The Co-operative Food,Co-op Camden - Camley Street,Unit 1 103a Camley Street,,London,Camden Town,N1C 4PF,-0.1307220570963933,51.537844080682056,529739.4845064271,183760.4062176137,Rooftop,,"< 3,013 ft2 (280m2)",Greater London
1010006704,Waitrose,Waitrose,Waitrose Holloway Road,366 Holloway Road,,London,Holloway,N7 6PA,-0.116167529120982,51.55611745999777,530696.491508801,185818.36822701475,Rooftop,,"15,069 < 30,138 ft2 (1,400 < 2,800 m2)",Greater London
1010014559,The Co-operative Group,The Co-operative Food,Co-op Highbury - Queensland Terrace,QN7 Junc Queensland Rd,,London,Highbury,N7 7BA,-0.1097002313107277,51.553256678122274,531153.0331099902,185511.80512672017,Rooftop,20179999.0,"< 3,013 ft2 (280m2)",Greater London
1010005274,Tesco,Tesco Express,Tesco Stoke Newington High St Express,39 Stoke Newington High Street,,London,Stoke Newington,N16 8DR,-0.074810389199307,51.558239477803625,533557.1915161335,186128.99823343224,Rooftop,,"< 3,013 ft2 (280m2)",Greater London
1010003666,Sainsburys,Sainsburys Local,Sainsburys Highgate Archway Road Local,260-268 Archway Road,Highgate,London,Highgate,N6 5AX,-0.1423929151380379,51.575052278123366,528825.0315038674,187877.50823122595,Rooftop,,"< 3,013 ft2 (280m2)",Greater London
1010021923,Iceland,Iceland,Iceland Finsbury Park,278 Seven Sisters Road,,London,Finsbury Park,N4 2HY,-0.1047248581103479,51.5644241468889,531465.7699555864,186762.5978994053,Rooftop,20231299.0,"3,013 < 15,069 ft2 (280 < 1,400 m2)",Greater London
1010014015,Tesco,Tesco Express,Tesco Archway Holloway Rd Express,627-635 Holloway Road,,London,Upper Holloway,N19 5SS,-0.1315015533963532,51.56421192181036,529610.52287026,186691.24038718548,Rooftop,20169999.0,"< 3,013 ft2 (280m2)",Greater London
1010007231,Lidl,Lidl,Lidl Finsbury Park London,269-271 Seven Sisters Road,,London,Finsbury Park,N4 2DE,-0.1045554401090368,51.56510780901737,531475.5415107585,186838.9282322431,Rooftop,,"3,013 < 15,069 ft2 (280 < 1,400 m2)",Greater London
1010005288,Tesco,Tesco Express,Tesco Dartmouth Park Express,23-25 Swains Lane,Dartmouth Park,London,Dartmouth Park,N6 6QX,-0.1494610394328513,51.56210048446056,528371.7115027674,186424.7882249875,Rooftop,,"< 3,013 ft2 (280m2)",Greater London
1010001245,Budgens,Budgens,Budgens Tufnell Park London,Tufnell Park Road,,London,Tufnell Park,N7 0EA,-0.1317866626751737,51.55766804958991,529609.3515059901,185963.0282255536,Rooftop,,"< 3,013 ft2 (280m2)",Greater London
1010010806,Iceland,Iceland,Iceland Holloway,442-446 Holloway Road,,London,Holloway,N7 6QA,-0.1185438490995296,51.55771533444915,530527.1915083566,185991.8182273449,Rooftop,,"3,013 < 15,069 ft2 (280 < 1,400 m2)",Greater London
1010010809,Iceland,Iceland,Iceland Archway,46 Junction Road,,London,Upper Holloway,N19 5RD,-0.1357612655883588,51.56395988621158,529316.0015051989,186655.6782275845,Rooftop,,"3,013 < 15,069 ft2 (280 < 1,400 m2)",Greater London
1010005286,Tesco,Tesco Express,Tesco Drayton Park Express,71 Drayton Park,Drayton Park,London,Highbury,N5 1AN,-0.1054652297014031,51.55382407605438,531444.9915107382,185582.4982275223,Rooftop,,"< 3,013 ft2 (280m2)",Greater London
1010023408,Aldi,Aldi Local,"Aldi 271-275 Holloway Road, London",271-275 Holloway Road,,London,Lower Holloway,N7 8FB,-0.1119249113483516,51.55197736714226,531002.4788103199,185365.5571229593,Rooftop,20241024.0,"< 3,013 ft2 (280m2)",Greater London
1010009216,The Co-operative Group,The Co-operative Food,Co-op Hackney - Theydon Road,17 Urban Hive,Theydon Road,London,Upper Clapton,E5 9BQ,-0.0520023161847151,51.56404088903444,535121.0015201013,186815.99823884293,Rooftop,,"< 3,013 ft2 (280m2)",Greater London
1010013997,Sainsburys,Sainsburys Local,Sainsburys Peckham Queens Road Local,83-89 Queens Road,,London,Peckham,SE15 2EZ,-0.0608212735811472,51.474135158763815,534774.7215195706,176801.99820120784,Rooftop,20169999.0,"< 3,013 ft2 (280m2)",Greater London
1010007364,Lidl,Lidl,Lidl Peckham London,3 Bellenden Road,,London,Peckham,SE15 5BA,-0.0713300230917647,51.47247507479285,534049.8015177306,176598.1181991197,Rooftop,,"3,013 < 15,069 ft2 (280 < 1,400 m2)",Greater London
1010003210,Sainsburys,Sainsburys,Sainsburys Forest Hill,34-48 London Road,,London,Forest Hill,SE23 3HF,-0.0554986334461318,51.44004567049946,535245.0015208529,173020.99818818882,Rooftop,,"15,069 < 30,138 ft2 (1,400 < 2,800 m2)",Greater London
1010005607,Tesco,Tesco Express,Tesco East Dulwich Express,5a-9 East Dulwich Road,East Dulwich,London,East Dulwich,SE22 9BD,-0.068298067717886,51.46195591267318,534291.2215183757,175433.91819527774,Rooftop,,"< 3,013 ft2 (280m2)",Greater London
1010014231,Marks and Spencer,Marks and Spencer Foodhall,M&S Dulwich Foodhall,84-90 Lordship Lane,,London,East Dulwich,SE22 8HF,-0.0755527823286732,51.457839253215504,533799.3109171344,174962.870292634,Rooftop,20160899.0,"3,013 < 15,069 ft2 (280 < 1,400 m2)",Greater London
1010015450,Iceland,Iceland,Iceland Peckham 2,Unit 1 87-91 Rye Lane,Peckham,London,Peckham,SE15 5EZ,-0.0689987036082615,51.47101012548992,534216.0025716411,176439.48010946182,Rooftop,20190219.0,"3,013 < 15,069 ft2 (280 < 1,400 m2)",Greater London
1010024054,Spar,Spar PFS,EG - OTM - Camberwell,96/106 Camberwell Rd,,London,Camberwell,SE5 0EG,-0.0950133,51.4811263,532380.0173601984,177517.09892151982,Rooftop,20259999.0,"< 3,013 ft2 (280m2)",Greater London
1010021659,Budgens,Budgens,Budgens Pomeroy Street,47-49 Pomeroy Street,,London,New Cross Gate,SE14 5BX,-0.052566419800578,51.47552259706325,535343.8774547873,176971.4984775409,Rooftop,20231299.0,"< 3,013 ft2 (280m2)",Greater London
1010008535,The Co-operative Group,The Co-operative Food,Co-op Crofton Park,383 Brockley Road,Crofton Park,London,Brockley,SE4 2PH,-0.0369659832891268,51.45483234049866,536488.8945239718,174699.64309665584,Rooftop,,"< 3,013 ft2 (280m2)",Greater London
1010021943,Cook,Cook,Cook Blackheath,18 Tranquil Vale Blackheath,,London,Blackheath,SE3 0AX,0.0091693,51.4660149,539659.9842336942,176030.07053815376,Rooftop,,"< 3,013 ft2 (280m2)",Greater London
1010003981,Sainsburys,Sainsburys Local,Sainsburys Bloomsbury Southampton Row Local,Victoria House,Southampton Row,London,Bloomsbury,WC1B 4DA,-0.1218269759702952,51.51935344306614,530409.1315082377,181719.97821128496,Rooftop,,"< 3,013 ft2 (280m2)",Greater London
1010006836,Waitrose,Waitrose,Waitrose Bloomsbury,The Brunswick,Bloomsbury,London,Bloomsbury,WC1N 1AF,-0.124140496513833,51.524936058664814,530232.7115077584,182336.66821324688,Rooftop,,"15,069 < 30,138 ft2 (1,400 < 2,800 m2)",Greater London
1010006548,Waitrose,Little Waitrose,Little Waitrose High Holborn,Weston House,246 High Holborn,London,Holborn,WC1V 7EX,-0.118732669289163,51.517427384148526,530629.311508812,181511.3082109245,Rooftop,20110804.0,"3,013 < 15,069 ft2 (280 < 1,400 m2)",Greater London
1010002108,Marks and Spencer,Marks and Spencer Travel SF,M&S Kings Cross Rail SF,Kings Cross Station,,London,King's Cross,N1 9AP,-0.1242305485856267,51.53161227522466,530207.4315076626,183078.92821594985,Rooftop,,"< 3,013 ft2 (280m2)",Greater London
1010010390,Sainsburys,Sainsburys Local,Sainsburys Pentonville Road,266 Pentonville Road,,London,King's Cross,N1 9LE,-0.1202120610014185,51.53105776725172,530487.7315083868,183024.4182162686,Rooftop,20149999.0,"< 3,013 ft2 (280m2)",Greater London
1010005280,Tesco,Tesco Express,Tesco Pentonville Rd Express,122-128 Pentonville Road,Islington,London,Pentonville,N1 9TT,-0.1127451374375657,51.53167462961373,531003.861509711,183106.34821752424,Rooftop,,"< 3,013 ft2 (280m2)",Greater London
1010010632,Tesco,Tesco Express,Tesco New North Rd Express,New North Road,,London,Islington,N1 8SY,-0.0941256126897898,51.53980885294333,532271.7115129284,184044.3782233325,Rooftop,20159999.0,"< 3,013 ft2 (280m2)",Greater London
1010005270,Tesco,Tesco Express,Tesco Southgate Rd Express,14-18 Southgate Road,,London,De Beauvoir Town,N1 3JE,-0.0858145818682528,51.53810541674418,532853.001514426,183869.9982237596,Rooftop,,"< 3,013 ft2 (280m2)",Greater London
1010003654,Sainsburys,Sainsburys Local,Sainsburys Essex Road Local,325 Essex Road,,London,Canonbury,N1 2YG,-0.0901446521463718,51.54405305813802,532535.4515135847,184523.5482256001,Rooftop,,"< 3,013 ft2 (280m2)",Greater London
1010015477,Sainsburys,Sainsburys Local,Sainsburys Camden York Way Local,Maiden Lane Estate,Camden,London,Camden Town,NW1 9UJ,-0.1259191529533248,51.542422934818106,530059.516525234,184278.1143683628,Rooftop,20199999.0,"< 3,013 ft2 (280m2)",Greater London
1010018906,Planet Organic,Planet Organic,Planet Organic Islington,64 Essex Road,,London,Islington,N1 8LR,-0.0993946542956397,51.53800127851329,531911.5486035603,183833.8634331865,Rooftop,20089999.0,"< 3,013 ft2 (280m2)",Greater London
1010010206,The Co-operative Group,The Co-operative Food,Co-op Gainsborough Studios,Gainsborough Studios,136 New North Road Islington,London,Hoxton,N1 6SU,-0.0891321909780278,51.5356994251738,532629.9199138653,183596.4291223377,Rooftop,,"< 3,013 ft2 (280m2)",Greater London
1010010469,Tesco,Tesco Express,Tesco Kings Cross Express,21 Caledonian Road,,London,King's Cross,N1 9DX,-0.1211977796877342,51.53205976697392,530416.5015081988,183134.08821653985,Rooftop,,"3,013 < 15,069 ft2 (280 < 1,400 m2)",Greater London
1010009364,The Co-operative Group,The Co-operative Food,Co-op Caledonian Road,303-311 Caledonian Road,Islington,London,Barnsbury,N1 1DT,-0.117324435811516,51.541196185619626,530659.0015087791,184156.99822078185,Rooftop,,"< 3,013 ft2 (280m2)",Greater London
1010006524,Waitrose,Little Waitrose,Little Waitrose Kings Cross Train Station,Unit 4 Concourse,Kings Cross Station,London,King's Cross,N1C 4AP,-0.1235639071614886,51.53254744456526,530251.0015077702,183184.1082164217,Rooftop,,"< 3,013 ft2 (280m2)",Greater London
1010013889,Sainsburys,Sainsburys Local,Sainsburys Islington St Pauls Road Local,89-95 St. Paul's Road,,London,Canonbury,N1 2NA,-0.101157504668054,51.54605802474428,531766.0415116013,184726.62822493183,Rooftop,20179999.0,"< 3,013 ft2 (280m2)",Greater London
1010001241,Budgens,Budgens,Budgens Barnsbury London,213-215 Upper Street,Islington,London,Barnsbury,N1 1RL,-0.1036533996066541,51.54353418228414,531600.2615111877,184441.478223568,Rooftop,,"3,013 < 15,069 ft2 (280 < 1,400 m2)",Greater London
1010023674,Tesco,Tesco Express,Tesco Camden North Rd Express,24 North Road Camden,,London,Lower Holloway,N7 9GF,-0.1258920673906989,51.547672157153976,530046.4394343849,184861.8971848633,Rooftop,20250299.0,"< 3,013 ft2 (280m2)",Greater London
1010010084,The Co-operative Group,The Co-operative Food,Co-op London - City Road,271-273 City Road,,London,Angel,EC1V 1LA,-0.0980703598554503,51.53009044457971,532026.2559123434,182956.5382188495,Rooftop,,"< 3,013 ft2 (280m2)",Greater London
1010004898,Tesco,Tesco Express,Tesco Smithfield Express,10 Smithfield Street,,London,Smithfield,EC1A 9LR,-0.10273432399754,51.51815311468645,531737.1815116539,181620.6682133749,Rooftop,,"< 3,013 ft2 (280m2)",Greater London
1010006628,Waitrose,Waitrose,Waitrose Barbican,Cherry Tree Walk Centre,Whitecross Street,London,Old Street,EC1Y 8NX,-0.0920550049871556,51.52232148733547,532466.0115135042,182103.4682165068,Rooftop,,"15,069 < 30,138 ft2 (1,400 < 2,800 m2)",Greater London
1010004900,Tesco,Tesco Express,Tesco Clerkenwell Central St Express,55 Central Street,Clerkenwell,London,Old Street,EC1V 3AF,-0.0966440224125022,51.52579909151464,532137.6015126477,182481.89821730103,Rooftop,,"< 3,013 ft2 (280m2)",Greater London
1010021465,Marks and Spencer,Marks and Spencer Travel SF,M&S Liverpool St. West Mall,Unit R1A West Mall,,London,Moorgate,EC2M 7PY,-0.0832121071635,51.51788494861612,533092.3859658816,181626.14449612657,Rooftop,20230999.0,"< 3,013 ft2 (280m2)",Greater London
1010009647,The Co-operative Group,The Co-operative Food,Co-op Old Street,185 Old Street,Shoreditch,London,Old Street,EC1V 9NP,-0.0905236458545585,51.52569288845506,532562.4615137368,182481.14981808217,Rooftop,,"3,013 < 15,069 ft2 (280 < 1,400 m2)",Greater London
1010012749,Sainsburys,Sainsburys Local,Sainsburys Holborn Circus Local,123 Holborn,,London,Holborn,EC1N 2TD,-0.1084721148704529,51.51806602611518,531339.3515106334,181600.67821256537,Rooftop,20151023.0,"< 3,013 ft2 (280m2)",Greater London
1010023380,Sainsburys,Sainsburys Local,Sainsburys Tower Hamlets Norton Folgate Local,"20-21 Norton Folgate, London",,London,Spitalfields,E1 6DB,-0.078212586958842,51.52159603396697,533428.4086143324,182047.9255514451,Rooftop,20240899.0,"< 3,013 ft2 (280m2)",Greater London
1010003799,Sainsburys,Sainsburys Local,Sainsburys Southwark Great Dover Street Local,58 Great Dover Street,,London,The Borough,SE1 4YF,-0.0899574433087669,51.49746596763935,532683.6615141601,179343.25820670626,Rooftop,,"< 3,013 ft2 (280m2)",Greater London
1010012719,Sainsburys,Sainsburys Local,Sainsburys Southwark Bermondsey Spa Local,19 Spa Road,,London,Bermondsey,SE1 8XA,-0.0742122354035514,51.49560067459392,533781.9922864423,179164.4685525748,Rooftop,20159999.0,"< 3,013 ft2 (280m2)",Greater London
1010020860,Sainsburys,Sainsburys Local,Sainsburys Waterloo Station Local,"Unit UG13, Waterloo Station",,London,Waterloo,SE1 7LY,-0.1125515703165396,51.50321743881336,531098.9085949549,179942.1589650389,Rooftop,20230299.0,"< 3,013 ft2 (280m2)",Greater London
1010002124,Marks and Spencer,Marks and Spencer Travel SF,M&S London Bridge Rail SF,London Bridge Station,,London,London Bridge,SE1 9SP,-0.0855028861818326,51.50441779921965,532972.6315148729,180124.39821012545,Rooftop,,"< 3,013 ft2 (280m2)",Greater London
1010014620,Tesco,Tesco Express,Tesco London Borough High Street Express,127-143 Borough High Street,,London,The Borough,SE1 1NP,-0.0912857615598441,51.5034221115029,532574.1909138578,180003.1929089363,Rooftop,20179999.0,"< 3,013 ft2 (280m2)",Greater London
1010014249,Sainsburys,Sainsburys,Sainsburys Elephant and Castle,40 New Kent Road,,London,Elephant and Castle,SE1 6TJ,-0.0976735937529111,51.49443640281588,532156.8387128233,178992.41480443417,Rooftop,20161299.0,"3,013 < 15,069 ft2 (280 < 1,400 m2)",Greater London
1010010634,Tesco,Tesco Express,Tesco Waterloo Rd Express,103-107 Waterloo Road,,London,Waterloo,SE1 8UL,-0.1103829806463817,51.502872717341695,531250.4015104678,179907.70820613857,Rooftop,20159999.0,"< 3,013 ft2 (280m2)",Greater London
1010003803,Sainsburys,Sainsburys Local,Sainsburys Lambeth The Cut Local,55A The Cut,,London,Southwark,SE1 8LL,-0.1074991177935897,51.502853822933616,531450.6015109816,179910.77820652392,Rooftop,,"< 3,013 ft2 (280m2)",Greater London
1010019085,Marks and Spencer,Marks and Spencer Hospital,M&S Guys Hospital Food To Go,Saint Thomas Street WHSmith,Guy's Hospital,London,London Bridge,SE1 9RT,-0.0869620692535456,51.50317715255256,532874.971145566,179983.7869649402,Rooftop,20219999.0,"< 3,013 ft2 (280m2)",Greater London
1010010824,Iceland,Iceland,Iceland Walworth Road,332-334 Walworth Road,,London,Walworth,SE17 2NA,-0.0946891435749936,51.485788905805904,532389.0315134483,178036.17820134002,Rooftop,,"3,013 < 15,069 ft2 (280 < 1,400 m2)",Greater London
1010014899,Sainsburys,Sainsburys Local,Sainsburys Lambeth North Station Local,107 Westminster Bridge Road,,London,Lambeth,SE1 7HR,-0.1129562645722435,51.49894175258005,531083.0804100541,179465.965204195,Rooftop,20179999.0,"< 3,013 ft2 (280m2)",Greater London
1010005598,Tesco,Tesco Express,Tesco Camberwell Express,364-368 Walworth Road,Camberwell,London,Walworth,SE17 2NF,-0.0941865376911128,51.4851204115558,532425.8615135449,177962.7482011334,Rooftop,,"< 3,013 ft2 (280m2)",Greater London
1010005590,Tesco,Tesco Express,Tesco Borough New Kent Rd Express,157 New Kent Road,Borough,London,Elephant and Castle,SE1 4AG,-0.0923344804951503,51.49436732596258,532527.6515137724,178994.37820513034,Rooftop,,"< 3,013 ft2 (280m2)",Greater London
1010014466,The Co-operative Group,The Co-operative Food,Co-op Dover House - Lower Marsh,170a Westminster Bridge Road,,London,Lambeth,SE1 7NT,-0.11397718420734,51.49985280110496,531009.610009862,179565.4503044263,Rooftop,20179999.0,"< 3,013 ft2 (280m2)",Greater London
1010004372,Tesco,Tesco,Tesco Southwark Superstore,107 Dunton Road,Southwark,London,Bermondsey,SE1 5HG,-0.0760550289393567,51.4888149704123,533673.91151672,178406.51820508228,Rooftop,,"30,138 ft2 > (2,800 m2)",Greater London
1010006507,Tesco,Tesco Express,Tesco Covent Garden Express,22-25 Bedford Street,Covent Garden,London,Covent Garden,WC2E 9EQ,-0.1252050820584209,51.511005324215205,530198.5515077321,180785.6282074369,Rooftop,,"3,013 < 15,069 ft2 (280 < 1,400 m2)",Greater London
1010013759,The Co-operative Group,The Co-operative Food,Co-op Kingsway,18 Kingsway,,London,Holborn,WC2B 6LH,-0.1175858455986709,51.51387282937544,530719.0458090579,181118.07570963007,Rooftop,20169999.0,"< 3,013 ft2 (280m2)",Greater London
1010024576,Tesco,Tesco Express,Tesco St Pauls London Express,"Unit 1, Juxon House Paternoster Square",,London,St Pauls,EC4M 7DX,-0.100204582,51.51421132,531924.071325081,181186.88164810685,Third Party,20250822.0,"< 3,013 ft2 (280m2)",Greater London
1010022919,Budgens,Budgens,Budgens Ludgate Hill,"Ludgate City Thameslink Station, Ludgate Hill",,London,Smithfield,EC4M 7JH,-0.1035656,51.51402762,531691.3976925492,181160.40495907457,Rooftop,20249999.0,"< 3,013 ft2 (280m2)",Greater London
1010004905,Tesco,Tesco Express,Tesco Cheapside Express,Unit 5 Cheapside,,London,St Pauls,EC2V 6BJ,-0.0969561446488102,51.51532181351069,532146.2515127144,181316.22821300512,Rooftop,,"< 3,013 ft2 (280m2)",Greater London
1010013459,Marks and Spencer,Marks and Spencer Travel SF,M&S Fenchurch St Rail SF,Fenchurch Street Place,,London,Aldgate,EC3M 4AJ,-0.0786352763113373,51.51158624440325,533428.3115160097,180934.038213958,Rooftop,20169999.0,"< 3,013 ft2 (280m2)",Greater London
1010003498,Sainsburys,Sainsburys Local,Sainsburys The City Mansion House Station Local,63 Queen Victoria Street,,London,Mansion House,EC4N 4UA,-0.094231478556892,51.51215364780732,532344.4715132352,180968.8382120864,Rooftop,,"< 3,013 ft2 (280m2)",Greater London
1010005749,Tesco,Tesco Express,Tesco Brixton Hill Express,144 Brixton Hill,,London,Brixton,SW2 1SD,-0.1219020915625816,51.45215436970381,530595.621508964,174247.10818403552,Rooftop,,"< 3,013 ft2 (280m2)",Greater London
1010020531,Budgens,Budgens,Budgens Streatham Hill,41 Streatham Hill,,London,Streatham Hill,SW2 4TP,-0.1244772395180184,51.44124458876995,530447.7654174871,173029.33045697428,Rooftop,20221199.0,"< 3,013 ft2 (280m2)",Greater London
1010003881,Sainsburys,Sainsburys Local,Sainsburys Clapham Old Town Local,53 Old Town,Clapham,London,Clapham,SW4 0JQ,-0.1408812413973156,51.46365490516878,529244.5015054578,175492.3581861098,Rooftop,,"< 3,013 ft2 (280m2)",Greater London
1010010519,Sainsburys,Sainsburys,Sainsburys Brixton,2 Tulse Hill,,London,Brixton,SW2 2TP,-0.1139336391341634,51.45480174029723,531141.6815103556,174555.7281861906,Rooftop,20159999.0,"3,013 < 15,069 ft2 (280 < 1,400 m2)",Greater London
1010007417,Lidl,Lidl,Lidl Brixton London,71-73 Acre Lane,,London,Brixton,SW2 5TN,-0.1238999808344296,51.45927684956149,530436.5215085343,175035.58818664635,Rooftop,,"3,013 < 15,069 ft2 (280 < 1,400 m2)",Greater London
1010010830,Iceland,Iceland,Iceland Brixton,441-443 Brixton Road,,London,Brixton,SW9 8HE,-0.1147815692597391,51.462417553034506,531060.9715101256,175401.10818915605,Rooftop,,"3,013 < 15,069 ft2 (280 < 1,400 m2)",Greater London
1010003882,Sainsburys,Sainsburys Local,Sainsburys Clapham High Street Local,33 Clapham High Street,,London,Clapham,SW4 7TP,-0.1313253737951855,51.46415449850773,529906.8515071587,175564.80818761466,Rooftop,,"< 3,013 ft2 (280m2)",Greater London
1010004395,Tesco,Tesco,Tesco Brixton Superstore,13 Acre Lane,Brixton,London,Brixton,SW2 5RS,-0.1195937983296067,51.45985937377038,530734.0015092953,175108.03818746936,Rooftop,,"15,069 < 30,138 ft2 (1,400 < 2,800 m2)",Greater London
1010010585,Sainsburys,Sainsburys Local,Sainsburys Clapham North Station,399-407 Clapham Road,,London,Stockwell,SW9 9BT,-0.1296188346536144,51.46504102267576,530022.871507454,175666.41818820196,Rooftop,20159999.0,"< 3,013 ft2 (280m2)",Greater London
1010003808,Sainsburys,Sainsburys Local,Sainsburys Herne Hill Local,132a Herne Hill,,London,Herne Hill,SE24 9QH,-0.101397000569076,51.453154887600505,532017.4115126008,174395.09818723367,Rooftop,,"< 3,013 ft2 (280m2)",Greater London
1010006093,Tesco,Tesco Express Esso,Tesco Barnes Esso Express,159-167 Castelnau,Barnes,London,Barnes,SW13 9EW,-0.2344705878562665,51.484803959366246,522686.8714883785,177683.34818197432,Rooftop,,"< 3,013 ft2 (280m2)",Greater London
1010022038,Morrisons,Morrisons Daily,Morrisons Daily Barnes Church Road,96 Church Road,,London,Barnes,SW13 0DQ,-0.2397836017265482,51.47506387151506,522344.0249640044,176591.3246523214,Rooftop,20249999.0,"< 3,013 ft2 (280m2)",Greater London
1010001812,Marks and Spencer,Marks and Spencer BP,M&S Cromwell Sth BP,Great West Road,,London,Ravenscourt Park,W6 9TQ,-0.2386840545845769,51.49111975874944,522377.43148754095,178378.64818397711,Rooftop,,"< 3,013 ft2 (280m2)",Greater London
1010015754,The Co-operative Group,The Co-operative Food,Co-op Rotherhithe Street London,346 Rotherhithe Street,,London,Rotherhithe,SE16 5EF,-0.0416511068868586,51.50673814247559,536009.004637615,180462.94337743765,Rooftop,20199999.0,"< 3,013 ft2 (280m2)",Greater London
1010015342,Tesco,Tesco Express,Tesco Cutty Sark Express,308 Creek Road,Mariners Parade,London,Greenwich,SE10 9SW,-0.0114087714600305,51.48129445848018,538184.546949527,177690.159158893,Rooftop,20189999.0,"< 3,013 ft2 (280m2)",Greater London
1010003205,Sainsburys,Sainsburys,Sainsburys New Cross Gate,263D New Cross Road,,London,New Cross Gate,SE14 5UQ,-0.0423114165719178,51.47720880115005,536051.0015228034,177177.99820495764,Rooftop,,"30,138 ft2 > (2,800 m2)",Greater London
1010019479,Aldi,Aldi,Aldi Greenwich High Road,Greenwich High Road,,London,Greenwich,SE10 8NB,-0.0108681534849815,51.47918070070107,538228.4703647405,177456.12640196894,Rooftop,20220199.0,"3,013 < 15,069 ft2 (280 < 1,400 m2)",Greater London
1010015753,The Co-operative Group,The Co-operative Food,Co-op Greenwich - Banning Street,51 Banning Street,,London,Greenwich,SE10 0FE,0.0026146879842313,51.48754465389393,539139.235972744,178411.72924858262,Rooftop,20199999.0,"< 3,013 ft2 (280m2)",Greater London
1010023396,Sainsburys,Sainsburys Local,Sainsburys Mile End Station Local,409-413 Mile End Road,,London,Mile End,E3 4PB,-0.0334278071927469,51.52569605739007,536523.0083260116,182586.4070282018,Rooftop,20241017.0,"< 3,013 ft2 (280m2)",Greater London
1010004858,Tesco,Tesco Express,Tesco Limehouse Express,657 Commercial Road,Limehouse,London,Limehouse,E14 7LW,-0.0378749764915571,51.512911827416005,536252.644227766,181156.4891037193,Rooftop,,"< 3,013 ft2 (280m2)",Greater London
1010023538,The Southern Co-operative,The Co-operative Food,Co-op FR Aberfeldy Square,10 Aberfeldy Square,,London,South Bromley,E14 0XA,-0.0050820872927881,51.51291655962424,538527.9930579055,181218.5334054855,Rooftop,20240699.0,"< 3,013 ft2 (280m2)",Greater London
1010015829,Budgens,Budgens,Budgens Canning Town,10-12 Shirley Street,,London,Canning Town,E16 1HU,0.0118973554615503,51.51296547217605,539705.9728219253,181256.22618482343,Rooftop,20199999.0,"< 3,013 ft2 (280m2)",Greater London
1010004860,Tesco,Tesco Express,Tesco Isle Of Dogs Express,41 Millharbour,Isle of Dogs,London,Millwall,E14 9NA,-0.0187722638951333,51.49765658178503,537624.0269023514,179495.79037968058,Rooftop,,"< 3,013 ft2 (280m2)",Greater London
1010015643,The Co-operative Group,The Co-operative Food,Co-op University of London Queen Mary,Mile End Road,Westfield Way,London,Stepney,E1 4NX,-0.0386340910686911,51.52537417719052,536162.825802967,182540.9192823904,Rooftop,20199999.0,"< 3,013 ft2 (280m2)",Greater London
1010006623,Waitrose,Waitrose,Waitrose Canary Wharf,Canada Place,Canada Square,London,Canary Wharf,E14 5EW,-0.0168138144942652,51.50461265056992,537739.0015269953,180272.9982194649,Rooftop,,"30,138 ft2 > (2,800 m2)",Greater London
1010022669,Asda,Asda Express,Asda Bow Express Petrol,127-131 Bow Road,,London,Bow,E3 2AN,-0.021902067,51.52812145,537315.216578528,182877.66794445884,Rooftop,20240202.0,"< 3,013 ft2 (280m2)",Greater London
1010003475,Sainsburys,Sainsburys Local,Sainsburys Tower Hamlets Mile End Road Local,420-430 Mile End Road,,London,Stepney,E1 4PE,-0.0397255832903609,51.52285362045411,536094.62152276,182258.59822376416,Rooftop,,"< 3,013 ft2 (280m2)",Greater London
1010019987,Spar,Spar PFS,Spar - Poplar,Service Station,40 Cotton St,London,Poplar,E14 0EL,-0.010869987443216,51.51074999539982,538132.9440170857,180966.6756127877,Rooftop,,"< 3,013 ft2 (280m2)",Greater London
1010014288,Aldi,Aldi,Aldi Leyton London,18 Heybridge Way,,London,Leyton,E10 7NQ,-0.0300505669663722,51.56922274355611,536626.9160239124,187432.9925438912,Rooftop,20171019.0,"3,013 < 15,069 ft2 (280 < 1,400 m2)",Greater London
1010014891,Sainsburys,Sainsburys Local,Sainsburys Leyton Midland Station Local,640 High Road,,London,Leyton,E10 6RN,-0.0080533810760714,51.56945752334624,538150.6139277804,187500.39834692504,Rooftop,20179999.0,"< 3,013 ft2 (280m2)",Greater London
1010020376,Budgens,Budgens,Budgens Putney,134 West Hill,,London,West Hill,SW15 2UE,-0.2111432550689155,51.45436624020961,524389.1810731107,174337.86858085106,Rooftop,20220999.0,"< 3,013 ft2 (280m2)",Greater London
1010003851,Sainsburys,Sainsburys Local,Sainsburys Wandsworth St Johns Hill Local,165-167 St Johns Hill,,London,Wandsworth,SW11 1TQ,-0.177114518884637,51.46005456034718,526737.6314990044,175028.71817972406,Rooftop,,"< 3,013 ft2 (280m2)",Greater London
1010003859,Sainsburys,Sainsburys Local,Sainsburys Upper Richmond Road Local,225 - 231 Upper Richmond Road,Putney,London,Putney,SW15 6SJ,-0.2219315535821975,51.46195437571832,523619.1614909059,175163.44817439135,Rooftop,,"< 3,013 ft2 (280m2)",Greater London
1010019067,Lidl,Lidl,Lidl Putney High Street,56-70 Putney High Street,,London,Putney,SW15 1SF,-0.2155358740599776,51.46447515173976,524056.6076567776,175454.57378631277,Rooftop,20210225.0,"3,013 < 15,069 ft2 (280 < 1,400 m2)",Greater London
1010003268,Sainsburys,Sainsburys,Sainsburys Wandsworth,45 Garratt Lane,,London,Wandsworth,SW18 4AD,-0.191628496321534,51.454364765257374,525745.0014964553,174370.99817544117,Rooftop,,"30,138 ft2 > (2,800 m2)",Greater London
1010024321,Waitrose,Little Waitrose,Little Waitrose Odyssey Way,5 Odyssey Way,,London,Wandsworth,SW18 1FP,-0.188351618,51.46143963,525953.2064985494,175163.37334788573,Rooftop,20251002.0,"< 3,013 ft2 (280m2)",Greater London
1010003865,Sainsburys,Sainsburys Local,Sainsburys Wandsworth Old York Road Local,527-529 Old York Road,,London,Wandsworth,SW18 1TG,-0.1886711920134445,51.45995454972582,525935.0914969277,174997.6781781066,Rooftop,,"< 3,013 ft2 (280m2)",Greater London
1010006795,Waitrose,Waitrose,Waitrose Clapham Junction,40-44 St Johns Road,Clapham Junction,London,Clapham Junction,SW11 1PP,-0.1680523360454253,51.46264218587864,527359.9615006034,175332.17818200594,Rooftop,,"3,013 < 15,069 ft2 (280 < 1,400 m2)",Greater London
1010023021,Tesco,Tesco Express,Tesco Marble Arch Express,"Unit 3, Marble Arch House 36-40 Edgware Road",,London,Marylebone,W2 2EH,-0.1618568,51.514691,527644.9987610409,181130.97615872428,Rooftop,20240899.0,"< 3,013 ft2 (280m2)",Greater London
1010005855,Tesco,Tesco Express,Tesco Marylebone Baker St Express,110-112 Baker Street,Marylebone,London,Marylebone,W1U 6TP,-0.1566993240081232,51.52102981149144,527985.091501978,181844.87820726068,Rooftop,,"< 3,013 ft2 (280m2)",Greater London
1010005392,Tesco,Tesco Express,Tesco Marylebone Melcombe St Express,11-15 Melcombe Street,Marylebone,London,Marylebone,NW1 6AE,-0.1587271031693487,51.52278569725138,527839.5015015934,182036.5982077025,Rooftop,,"< 3,013 ft2 (280m2)",Greater London
1010006448,Tesco,Tesco Express,Tesco Paddington Church Street Express,94 Church Street,St Johns Wood,London,Lisson Grove,NW8 8EX,-0.1722088923641557,51.52239297576492,526905.3314991762,181969.4782057193,Rooftop,,"3,013 < 15,069 ft2 (280 < 1,400 m2)",Greater London
1010014444,Lidl,Lidl,Lidl Hayes : Middlesex London,Central Avenue,,London,Hayes : Middlesex,UB3 2BN,-0.4201427434066414,51.50865149194319,509738.1926934426,180040.85244876466,Rooftop,20171102.0,"3,013 < 15,069 ft2 (280 < 1,400 m2)",Greater London
1010007456,Lidl,Lidl,Lidl Wood End London,482 Uxbridge Road,,London,Wood End,UB4 0SB,-0.4096530903787179,51.5189593812017,510441.2214557787,181202.928172196,Rooftop,,"3,013 < 15,069 ft2 (280 < 1,400 m2)",Greater London
1010009929,The Co-operative Group,The Co-operative Food,Co-op Hayes,274-276 Kingshill Avenue,,London,Hillingdon Heath,UB4 8BY,-0.4212881200472307,51.53200815823258,509602.6777534381,182636.5739760036,Rooftop,,"< 3,013 ft2 (280m2)",Greater London
1010019472,Lidl,Lidl,Lidl London Heston,Hayes Road,,London,North Hyde,UB2 5LN,-0.4045118398392928,51.49832239484383,510847.9457163599,178915.71264443616,Rooftop,20220106.0,"3,013 < 15,069 ft2 (280 < 1,400 m2)",Greater London
1010006334,Tesco,Tesco Extra,Tesco Bulls Bridge Extra,Bulls Bridge Industrial Estate,Hayes Road,London,North Hyde,UB2 5LN,-0.4077277826648085,51.49903409126093,510623.0014563934,178989.9981642709,Rooftop,,"30,138 ft2 > (2,800 m2)",Greater London
1010005837,Tesco,Tesco Express,Tesco Hayes Uxbridge Rd Express,734-736 Uxbridge Rd,Hayes,London,Wood End,UB4 0RU,-0.4145239177476278,51.52045867171205,510099.67145485216,181362.32817216264,Rooftop,,"< 3,013 ft2 (280m2)",Greater London
1010012644,Sainsburys,Sainsburys Local,Sainsburys Eastcote Station Local,Eastcote Tube Station,Field End Road,London,Eastcote,HA5 1RD,-0.3980797281461357,51.5766517701371,511103.691457142,187636.27819754707,Rooftop,20150605.0,"< 3,013 ft2 (280m2)",Greater London
1010005030,Tesco,Tesco Express,Tesco Ruislip Field End Rd Express,712-714 Field End Road,Ruislip,London,South Ruislip,HA4 0QP,-0.3811746900438928,51.56096469751678,512313.6914605037,185917.54819334304,Rooftop,,"< 3,013 ft2 (280m2)",Greater London
1010002992,Sainsburys,Sainsburys,Sainsburys South Ruislip,Long Drive,,London,South Ruislip,HA4 0HQ,-0.3961828953760597,51.55702044268783,511283.0014577711,185455.9981896965,Rooftop,,"30,138 ft2 > (2,800 m2)",Greater London
1010001213,Budgens,Budgens,Budgens Ruislip Manor London,47-49 Victoria Road,,London,Ruislip Manor,HA4 9AB,-0.4122540398590336,51.57248562703983,510131.581454562,187151.54819391947,Rooftop,,"< 3,013 ft2 (280m2)",Greater London
1010005033,Tesco,Tesco Express,Tesco Eastcote Field End Rd Express,149 Fieldend Road,Eastcote,London,Eastcote,HA5 1QW,-0.3990604305987376,51.57871571939009,511030.71145693,187864.31819826784,Rooftop,,"< 3,013 ft2 (280m2)",Greater London
1010012745,Sainsburys,Sainsburys Local,Sainsburys Ruislip High Street Local,48 High Street,,London,Ruislip,HA4 7AS,-0.4262253850399491,51.57548780477469,509156.2014519119,187464.4881932856,Rooftop,20159999.0,"< 3,013 ft2 (280m2)",Greater London
1010010543,Lidl,Lidl,Lidl Uxbridge London,137 Cowley Road,,London,Uxbridge,UB8 2AG,-0.4828688960061749,51.53535905883526,505323.68144185946,182918.8681690724,Rooftop,,"3,013 < 15,069 ft2 (280 < 1,400 m2)",Greater London
1010003940,Sainsburys,Sainsburys Local,Sainsburys West Drayton Garden Village Local,Unit 5 Hampstead House,2 Spring Promenade,London,West Drayton,UB7 9GL,-0.4588161221064274,51.50458506500531,507063.941446787,179531.41815963504,Rooftop,,"< 3,013 ft2 (280m2)",Greater London
1010006106,Tesco,Tesco Express Esso,Tesco Cowley Esso Express,33 High Road,Cowley,London,Cowley Peachey,UB8 2HL,-0.4823728997642335,51.52574230913297,505380.2614420842,181850.11816517176,Rooftop,,"< 3,013 ft2 (280m2)",Greater London
1010005832,Tesco,Tesco Express,Tesco Ickenham High Rd Express,91-97 High Road,Ickenham,London,Ickenham,UB10 8LB,-0.439616219963731,51.56906630699754,508243.5314495007,186730.4781888274,Rooftop,,"< 3,013 ft2 (280m2)",Greater London
1010014150,Tesco,Tesco Express,Tesco Hillingdon Pield Rd Express,Pield Heath Road,,London,Hillingdon Heath,UB8 3NJ,-0.4585696104629759,51.52601567347412,507030.8578465493,181915.03036849183,Rooftop,20179999.0,"< 3,013 ft2 (280m2)",Greater London
1010001805,Marks and Spencer,Marks and Spencer BP,M&S Hillingdon BP,Uxbridge Road,,London,Hillingdon Heath,UB10 0LQ,-0.4519339545195726,51.5327991869971,507475.2114477008,182679.1281721897,Rooftop,,"< 3,013 ft2 (280m2)",Greater London
1010006498,Tesco,Tesco Express,Tesco Uxbridge High Street Express,62 High Street,Uxbridge,London,Uxbridge,UB8 1ND,-0.4816053570664269,51.54762710663304,505383.0014419265,184284.99817431704,Rooftop,,"15,069 < 30,138 ft2 (1,400 < 2,800 m2)",Greater London
1010003090,Sainsburys,Sainsburys,Sainsburys Harringay,Williamson Road,,London,Harringay,N4 1UJ,-0.0955427812770037,51.577255221396,532065.0015122085,188205.99823840515,Rooftop,,"30,138 ft2 > (2,800 m2)",Greater London
1010019334,Aldi,Aldi,Aldi Arena Shopping Park,Unit 6 Arena Shopping Park,,London,Harringay,N4 1ED,-0.0966315744845583,51.57644202520166,531991.9145406313,188113.60300805653,Rooftop,20211028.0,"3,013 < 15,069 ft2 (280 < 1,400 m2)",Greater London
1010004875,Tesco,Tesco Express,Tesco Walthamstow St James St Express,43-45 St James Street,Walthamstow,London,Walthamstow,E17 7PF,-0.0325408265868379,51.5803609341465,536421.0115233334,188666.94824809453,Rooftop,,"< 3,013 ft2 (280m2)",Greater London
1010021773,Asda,Asda Express,Asda Walthamstow Express Petrol,124 Markhouse Road,,London,Walthamstow,E17 8BQ,-0.030018233,51.57590472,536609.1373048779,188176.1093175084,Rooftop,20231018.0,"< 3,013 ft2 (280m2)",Greater London
1010010440,Tesco,Tesco,Tesco Leyton Superstore,825 High Road,,London,Walthamstow,E10 7AA,-0.0120402293910449,51.574486613020696,537859.1215270173,188052.12824843824,Rooftop,,"15,069 < 30,138 ft2 (1,400 < 2,800 m2)",Greater London
1010016294,Spar,Spar,Spar - Walthamstow,Eat17,24-26 Orford Road,London,Walthamstow,E17 9NJ,-0.0129372452569107,51.58259875902282,537772.4481560558,188952.53305671,Rooftop,,"< 3,013 ft2 (280m2)",Greater London
1010004166,Tesco,Tesco,Tesco Enfield Superstore,Savoy Parade,Southbury Road,London,Enfield Town,EN1 1RT,-0.0767748659715043,51.65102455915039,533149.5115145384,196443.51827110787,Rooftop,,"15,069 < 30,138 ft2 (1,400 < 2,800 m2)",Greater London
1010013892,Sainsburys,Sainsburys Local,Sainsburys Enfield Lancaster Road Local,70-72 Lancaster Road,,London,Gordon Hill,EN2 0BX,-0.0796864362019596,51.66357233974057,532911.4115138368,197833.5982758734,Rooftop,20179999.0,"< 3,013 ft2 (280m2)",Greater London
1010004928,Tesco,Tesco Express,Tesco Enfield Lock Express,54-62 Island Centre Way,Enfield Lock,London,Enfield Island,EN3 6GS,-0.0164810241885766,51.668787670629065,537266.7415249603,198530.3982863623,Rooftop,,"< 3,013 ft2 (280m2)",Greater London
1010015923,Iceland,Iceland,Iceland Enfield,Unit 4 Palace Exchange,Cecil Road,London,Enfield Town,EN2 6TR,-0.0829524495665912,51.65149998200743,532720.7821022698,196485.1536976099,Rooftop,20180313.0,"3,013 < 15,069 ft2 (280 < 1,400 m2)",Greater London
1010014120,Lidl,Lidl,Lidl Enfield Wash London,Hertford Road,Freezy Water,London,Enfield Wash,EN3 6PS,-0.0414092264662384,51.6719357368122,535533.5997205089,198833.95008436887,Rooftop,20179999.0,"3,013 < 15,069 ft2 (280 < 1,400 m2)",Greater London
1010006515,Waitrose,Little Waitrose,Little Waitrose Enfield Chase,38-40 Windmill Hill,Enfield,London,Enfield Chase,EN2 7AS,-0.0925101861503414,51.65343472841979,532054.0015117008,196682.99827000825,Rooftop,20110310.0,"3,013 < 15,069 ft2 (280 < 1,400 m2)",Greater London
1010002283,Morrisons,Morrisons,Morrisons Southbury London,327 Southbury Road,,London,Southbury,EN1 1TW,-0.0593230384867667,51.6480222440291,534365.631517682,196141.5782721822,Rooftop,,"30,138 ft2 > (2,800 m2)",Greater London
1010005977,Tesco,Tesco Express Esso,Tesco Enfield Esso Express,439 Hertford Road,,London,Enfield Wash,EN3 5UT,-0.0430293457996089,51.6657103073448,535440.1315203137,198138.64828159567,Rooftop,,"< 3,013 ft2 (280m2)",Greater London
1010006242,Tesco,Tesco Extra,Tesco Lea Valley Extra,1 Glover Drive,Upper Edmonton,London,Upper Edmonton,N18 3HF,-0.0483021378809784,51.61000308659188,535241.0015201617,191933.9982580836,Rooftop,,"30,138 ft2 > (2,800 m2)",Greater London
1010020621,Asda,Asda Express,Asda Tottenham Hale Express,Hale Village,Daneland Walk,London,Tottenham Hale,N17 9GW,-0.0590382972670015,51.588155740477305,534562.1612152975,189484.6895140502,Rooftop,20221206.0,"< 3,013 ft2 (280m2)",Greater London
1010024053,Spar,Spar PFS,EG - OTM - Palmers Green,243 N Circular Rd.,,London,Palmers Green,N13 5JF,-0.1010212866622167,51.615026586637946,531576.2837441361,192396.4725569844,Rooftop,20259999.0,"< 3,013 ft2 (280m2)",Greater London
1010019102,Marks and Spencer,Marks and Spencer Hospital,M&S North Middlesex University Hospital Food To Go,Sterling Way,,London,Edmonton,N18 1QX,-0.0736904586920727,51.61286697699795,533474.7575202846,192205.83663357425,Rooftop,20219999.0,"< 3,013 ft2 (280m2)",Greater London
1010007230,Lidl,Lidl,Lidl Wood Green London,Units 7-8 88-96 High Road,,London,Wood Green,N22 6HE,-0.1067557035184928,51.59397898512623,531239.9115099905,190045.5782437425,Rooftop,,"3,013 < 15,069 ft2 (280 < 1,400 m2)",Greater London
1010002412,Morrisons,Morrisons,Morrisons Palmers Green London,19 Aldermans Hill,,London,Palmers Green,N13 4YD,-0.1104945769637121,51.61761213192522,530913.0015090015,192666.9982529134,Rooftop,,"15,069 < 30,138 ft2 (1,400 < 2,800 m2)",Greater London
1010004287,Tesco,Tesco,Tesco South Tottenham Superstore,230 High Road,South Tottenham,London,South Tottenham,N15 4AJ,-0.0715094490541576,51.58503130598013,533707.4274418997,189114.3768265141,Rooftop,,"15,069 < 30,138 ft2 (1,400 < 2,800 m2)",Greater London
1010005283,Tesco,Tesco Express,Tesco Turnpike Lane Express,1-3 High Road,Woodgreen,London,Wood Green,N22 6BS,-0.10398426883567,51.59056001219843,531441.7315105302,189670.34824271308,Rooftop,,"< 3,013 ft2 (280m2)",Greater London
